{"nodes": {"56c9a6d744ce6e220c98d3a0": {"lon": 11.030853962833, "lat": 49.545463669021, "online": false, "name": "Sebastianstrasse-01"}, "a42bb0ad8e5c": {"lon": 6.865276, "lat": 51.746702, "online": true, "name": "Freifunk---Vitos-Grill---VB-Erle"}, "Dortmund_65403_14cc2070b8cc": {"lon": 7.45020888888889, "lat": 51.50414, "online": true, "name": "FF-DO--Schillingstr001"}, "c4e984f0a582": {"lon": 11.59958, "lat": 48.12791, "online": true, "name": "Freifunk_Pariserstr_36_02"}, "moers_65401_14cc2097cfc4": {"lon": 6.625489, "lat": 51.451728, "online": true, "name": "FF-MO-Foto-Barth-1"}, "960": {"lon": "7.3750629", "lat": "51.0192909", "online": true, "name": "BERGNET-1"}, "niersufer_65401_30b5c2ee377c": {"lon": 6.4217395, "lat": 51.3644398, "online": true, "name": "FF-KK-HoJo-02"}, "c4e984a1b1f8": {"lon": 7.442932000000001, "lat": 52.237022, "online": true, "name": "Freifunk_Hauenhorst2"}, "f4f26df27f08": {"lon": 12.969553470611572, "lat": 51.097809906392875, "online": true, "name": "ffhar-f4f26df27f08"}, "Hamm_65404_14cc206fe1f2": {"lon": 7.74405, "lat": 51.63549, "online": true, "name": "FF-HAM-Kara2"}, "moers_65401_14cc20cd44d8": {"lon": 6.626963, "lat": 51.450532, "online": false, "name": "FF-MO-Planet16-2"}, "30b5c2c6f0a0": {"lon": 11.56666, "lat": 48.13144, "online": true, "name": "Thalkirchnerstr9_4"}, "60e327530a72": {"lon": 7.101354, "lat": 50.954555, "online": false, "name": "FF_GL_bruecker_bach_UP"}, "c4e984e35410": {"lon": 7.00806, "lat": 51.46193, "online": true, "name": "FF-E-Stadtmitte-Grossstadt_Deli_01"}, "30b5c2dfdc36": {"lon": 11.91166, "lat": 48.2761, "online": true, "name": "freifunk-ed6"}, "60e327762e30": {"lon": 7.820527553558349, "lat": 49.629365655041674, "online": false, "name": "rok-sonnenstudio-marbella"}, "1278": {"lon": 13.773589, "lat": 51.059544, "online": true, "name": "Knoten 1278 (Patrick)"}, "6466b3ab4a56": {"lon": 10.686269402503, "lat": 53.873215913907, "online": true, "name": "fluse114"}, "Emscherland_65402_c46e1f9e4b5e": {"lon": 7.080255, "lat": 51.645576, "online": true, "name": "ff-marl-Guido-Heiland-Bad-01"}, "68:72:51:06:3a:31": {"lon": 10.14011, "lat": 54.30789, "online": true, "name": "P5-to-city"}, "14cc20a6c73e": {"lon": 7.286342, "lat": 50.932649, "online": true, "name": "Parfuemerie-Gottmann"}, "Essen_65406_e894f6cec2cb": {"lon": 6.998534, "lat": 51.385088, "online": true, "name": "FF-E-Im-Loewental-11"}, "e894f6bfe676": {"lon": 11.23448, "lat": 47.63339, "online": true, "name": "Ohlstadt_Rathausplatz_2_i"}, "30b5c2bd719a": {"lon": 8.664591999999999, "lat": 49.526869, "online": true, "name": "ffrn-jelden"}, "647002cf4e94": {"lon": 7.188004, "lat": 51.398495, "online": true, "name": "FF-Hattingen-Sporthalle-Talstr.-Hausmeister"}, "60e327ee1322": {"lon": 11.149458, "lat": 51.787459, "online": true, "name": "QLB_Gralnetz_Node_2"}, "c46e1fca4988": {"lon": 11.61737, "lat": 52.12812, "online": true, "name": "gh41a"}, "60e327ed9928": {"lon": 8.242643, "lat": 49.912821, "online": true, "name": "MzEb-Ehrenmal2"}, "f81a6715118c": {"lon": 7.08159, "lat": 50.7026, "online": false, "name": "HagCeline235"}, "30b5c2ee3056": {"lon": 7.372688, "lat": 52.244690000000006, "online": false, "name": "Foto_Keizer"}, "60e327a179a0": {"lon": 8.525635000000001, "lat": 49.334435, "online": false, "name": "RW-HO-Pfaelzer_Ring-CPE02"}, "30b5c2ee60ea": {"lon": 6.198290899999961, "lat": 50.9205758, "online": true, "name": "LINKE_Setterich_1"}, "c46e1f7eb262": {"lon": 6.843883, "lat": 51.848575, "online": true, "name": "FF-BOR-HOXFELDER-WEG-01"}, "Dortmund_65403_14cc20a69cba": {"lon": 7.4082385, "lat": 51.5040605, "online": true, "name": "FF-DO-Am-Quartus_002"}, "567d856a44ce6e731f9a4e6e": {"lon": 10.939362472235, "lat": 49.626373037079, "online": false, "name": "Pension-Seebachstuben-05"}, "e8:94:f6:42:99:ae": {"lon": 8.0845588445663, "lat": 51.865377863384, "online": true, "name": "ffgt-ostenfelde"}, "5708f2499369c317e0bc9fcc": {"lon": 10.59525669, "lat": 49.91958179, "online": false, "name": "FtaschiMZ3"}, "c4:6e:1f:63:0e:a6": {"lon": 8.4230214357376, "lat": 51.845031401914, "online": false, "name": "33397-WGCGT-Klubhaus3"}, "56c3c05844ce6e0f2641e4db": {"lon": 11.057566823015, "lat": 49.445421843045, "online": false, "name": "BueroGanserer2"}, "14cc20311f2c": {"lon": 6.298368573188782, "lat": 50.77082899469435, "online": true, "name": "ffac-Sportheim-Gressenich"}, "c4:6e:1f:d0:6a:4a": {"lon": 7.357347, "lat": 51.203143, "online": true, "name": "Schnitzelstube-EG"}, "60e327e73be6": {"lon": 11.665206, "lat": 48.12039, "online": true, "name": "Freifunk_Trudering"}, "60e32776ceea": {"lon": 6.2077903747558585, "lat": 50.92935518446887, "online": true, "name": "Lombagine-Draeger"}, "c46e1fe7db58": {"lon": 12.501, "lat": 48.533, "online": true, "name": "Witz_1"}, "f8d111a18b50": {"lon": 6.286497116088866, "lat": 50.81013140626442, "online": true, "name": "DeeeNice_by_hiq24.de"}, "c4e984b5f742": {"lon": 7.396238, "lat": 52.119316, "online": false, "name": "BS.NetworX.GbR"}, "ffruhr_64878_30b5c2b53b1a": {"lon": 7.96995, "lat": 50.84495, "online": true, "name": "FF-Si-Haut-und-Haar"}, "687251122221": {"lon": 11.24121, "lat": 51.72079, "online": true, "name": "Rathaus_West"}, "60e32781e3fa": {"lon": 9.68798, "lat": 53.75988, "online": true, "name": "koelln-reisiek-0007"}, "FFFF_65410_60e327531430": {"lon": 7.871975, "lat": 50.897026, "online": false, "name": "FF-Si-Fb-Burgstr-up-1"}, "14:cc:20:47:38:5e": {"lon": 9.179167, "lat": 48.775857, "online": true, "name": "ffs-Markthalle"}, "Emscherland_65402_c4e98459c9d8": {"lon": 6.836024, "lat": 51.773185, "online": true, "name": "Helweg18"}, "24a43c461a8d": {"lon": 9.940295219312247, "lat": 53.578909760220846, "online": true, "name": "Srimalinar"}, "60e327b2db58": {"lon": 8.35418, "lat": 49.523979, "online": true, "name": "FT-Mahlastr30-002"}, "e894f678bddc": {"lon": 6.201712489128113, "lat": 50.924270896353114, "online": false, "name": "ChaosEmpire.eu"}, "6872512c972a": {"lon": 11.86653, "lat": 47.71139, "online": true, "name": "freifunk-winzerer55m"}, "57052f289369c317dfbc98a9": {"lon": 10.59789062, "lat": 49.92041073, "online": true, "name": "FatschiTP2"}, "60:e3:27:94:2e:0e": {"lon": 6.94458, "lat": 49.6566, "online": true, "name": "54411_Hermeskeil_01"}, "e894f6408026": {"lon": 9.932783, "lat": 53.556164, "online": true, "name": "t_und_t"}, "30b5c28795e0": {"lon": 11.576119065285, "lat": 48.122632205991, "online": true, "name": "kolumbusstr"}, "56c3bdf644ce6e0f2641e418": {"lon": 11.183526439835, "lat": 49.785386061666, "online": true, "name": "ebs02ur13a"}, "56cb121844ce6e220c98d4d3": {"lon": 10.960020889186, "lat": 49.487851953268, "online": true, "name": "toking01"}, "000acd25c5b0": {"lon": 10.15866, "lat": 49.73193, "online": true, "name": "KT_AWI_Futro1"}, "62:e3:27:cf:3d:2e": {"lon": 9.14861798, "lat": 47.69121911, "online": true, "name": "OldAssBastards"}, "60e327ee32a6": {"lon": 7.9385125637054434, "lat": 51.46168801291204, "online": true, "name": "ff-abg-Bergheim_www.hojo-metall.com_01"}, "a4:2b:b0:b1:04:e0": {"lon": 6.551043, "lat": 49.777931, "online": false, "name": "54311_Udelfangen_01_www.iTBoxTrier.de"}, "FFFF_65410_14cc205a5820": {"lon": 8.261858, "lat": 50.999222, "online": false, "name": "FF-Si-Eb-Muehlenweg-11-01-up"}, "c4e9847dc131": {"lon": 12.47038, "lat": 47.67477, "online": true, "name": "Haus-Mittermeier_Honig-Ladl"}, "6466b3d46d1a": {"lon": 7.17171, "lat": 51.4122, "online": false, "name": "FF-HAT-EvKirche-Winz-01"}, "f4:f2:6d:3f:13:32": {"lon": 10.130241999999999, "lat": 54.35626999999999, "online": true, "name": "farbminister-kiel05"}, "60:e3:27:c6:d2:74": {"lon": 8.4861767292023, "lat": 51.861414369679, "online": true, "name": "33415-Droste-Haus-1"}, "30b5c2c6b35a": {"lon": 8.631119, "lat": 49.647406, "online": false, "name": "Klippert_Gase"}, "14cc20e15724": {"lon": 7.395063, "lat": 52.118860999999995, "online": true, "name": "Autohaus.Willbrand.GmbH.2"}, "30b5c2d9de52": {"lon": 11.520568, "lat": 48.054441, "online": true, "name": "gemeinde-pullach_001"}, "FFFF_65410_e894f6ca9a16": {"lon": 8.0076330900192, "lat": 50.869894823941, "online": false, "name": "FF-Si-Effertsufer-01-up"}, "f8d11180091e": {"lon": 9.04744, "lat": 54.47555, "online": true, "name": "husum-trulala"}, "60e327bde51e": {"lon": 10.65951, "lat": 53.88229, "online": true, "name": "Wache1Freifunk04"}, "e894f6a1bdc8": {"lon": 9.239649, "lat": 52.929223, "online": false, "name": "ffhb-marcelinhio"}, "FFFF_65410_14cc20a92722": {"lon": 7.9782, "lat": 50.838551, "online": false, "name": "FF-Si-Siegtalstr-103-03"}, "1767": {"lon": "7.5674472", "lat": "51.0261536", "online": true, "name": "FF-GM-ReparaturPunktTelyps-up"}, "14cc20a68b44": {"lon": 7.936061, "lat": 47.702242, "online": true, "name": "ff3l-gersbach-freizeithaus-001"}, "Essen_65406_f4f26d3f2c36": {"lon": 7.0021892, "lat": 51.3892215, "online": true, "name": "FF-E-Baecker-Peter-Grafenstrasse"}, "c46e1f2b8d80": {"lon": 8.666173, "lat": 49.859439, "online": true, "name": "64285-the-floor"}, "687251307f49": {"lon": 8.57656717300415, "lat": 53.543737744206176, "online": false, "name": "Columbus"}, "niersufer_65401_14cc20e3953c": {"lon": 6.1840581893921, "lat": 51.239143091441, "online": true, "name": "FF-Brueggen-Burggemeindehalle1"}, "e894f687d69e": {"lon": 8.6619901657105, "lat": 49.881718594733, "online": true, "name": "64289-Chromical"}, "1592": {"lon": "7.0343714", "lat": "51.0775070", "online": true, "name": "Volksbank_Rhein_Wupper_eG"}, "6470025266b8": {"lon": 9.936768170446156, "lat": 53.56787963098433, "online": true, "name": "blackspear"}, "30b5c2c2aab2": {"lon": 7.772811055183411, "lat": 49.50206188443041, "online": true, "name": "Impuls-Otterberg"}, "1294": {"lon": 13.71005, "lat": 51.05777, "online": true, "name": "Knoten 1294 (Christian)"}, "c46e1fd10302": {"lon": 7.844256, "lat": 51.029841, "online": true, "name": "Olpe-Klumpen"}, "60e3275fedec": {"lon": 6.219350695610046, "lat": 50.53286760936043, "online": true, "name": "ffac-Fewo_Feck"}, "c46e1fd05220": {"lon": 6.9428, "lat": 51.1595, "online": true, "name": "ME-HLD-ASS2"}, "24a43cb68cb5": {"lon": 10.690244436264, "lat": 53.850423352284, "online": true, "name": "yBit2"}, "600": {"lon": "7.0403900", "lat": "51.1768799", "online": true, "name": ""}, "c4e984ef4522": {"lon": 7.489012, "lat": 52.227456, "online": true, "name": "Mesum-0025-Physiotherapiepraxis-Rote"}, "60:e3:27:9a:aa:22": {"lon": 9.3553031981, "lat": 48.8478563095, "online": true, "name": "korb026"}, "56ed998a9369c317e0bc9498": {"lon": 11.40259624, "lat": 50.02682128, "online": true, "name": "FF-Thurnau-CFZ-Test"}, "e894f6696e0c": {"lon": 7.7387064, "lat": 51.939029, "online": true, "name": "freifunke894f6696e0c"}, "14cc20c02b9a": {"lon": 8.6407504, "lat": 49.64224939999999, "online": false, "name": "HP-Aenderungsschneiderei-Slevany"}, "30b5c2864178": {"lon": 12.091559, "lat": 50.8796, "online": true, "name": "Gera-Lutherstr-001c"}, "30b5c2811182": {"lon": 8.001598, "lat": 47.569762, "online": true, "name": "ff3l-fewo-raina"}, "60e3279aa5f2": {"lon": 12.3545444, "lat": 48.6066493, "online": true, "name": "ffmuc-huetenkofen-01"}, "30b5c2abe174": {"lon": 9.682379, "lat": 50.559171, "online": true, "name": "fffd-scharnhorststrassewg2"}, "a0:f3:c1:99:45:c8": {"lon": 9.37659, "lat": 48.555714, "online": true, "name": "ffsTreffinternational"}, "f4:f2:6d:f2:55:58": {"lon": 11.078132093, "lat": 49.470562589, "online": true, "name": "ffs-hagos-nln-1"}, "c04a0038ed16": {"lon": 9.697644711, "lat": 50.536970903, "online": true, "name": "Max-Bahr-wdr3600-1"}, "ec086b612726": {"lon": 7.977187, "lat": 52.147244, "online": true, "name": "FF-ST-Lienen-02b"}, "60:e3:27:ce:b6:2c": {"lon": 6.895873546600343, "lat": 49.82431089880964, "online": true, "name": "54349_Trittenheim_Olunia_13"}, "940c6de8ee2c": {"lon": 9.781182, "lat": 53.643987, "online": true, "name": "PI035-Joe2"}, "60e327cec398": {"lon": 9.6402, "lat": 53.7543, "online": true, "name": "ffpi-thomemte"}, "c46e1fe809c2": {"lon": 8.292127, "lat": 51.252942, "online": true, "name": "ff-Meschede-Kirchrarbach-ZumRochus"}, "60:e3:27:bd:b2:82": {"lon": 12.680931687355, "lat": 53.519601535838, "online": true, "name": "17192-Jugendzentrum-JOO"}, "c6:6e:1f:de:d3:7c": {"lon": 9.73579645, "lat": 47.53447213, "online": true, "name": "exil.SeeSystem.de"}, "ffruhr_64878_c46e1ff6329e": {"lon": 7.6737892627716, "lat": 51.298974019155, "online": false, "name": "FF-AL-Aladag2"}, "c46e1fe6df60": {"lon": 7.64691, "lat": 51.10965, "online": true, "name": "FF-MZ-501"}, "f4f26d3e6e98": {"lon": 6.615, "lat": 51.838883, "online": true, "name": "FF-VobaBOH-01"}, "f4ec38f0f4f2": {"lon": 11.151387, "lat": 51.796788, "online": true, "name": "QLB_FeWo-Wenzel_1"}, "5731086f9369c3633aa41586": {"lon": 10.907189145133, "lat": 49.906879109305, "online": true, "name": "nano-m2-1"}, "56c3c05f44ce6e0f2641e4f1": {"lon": 11.8800509, "lat": 50.31230405, "online": true, "name": "IstvanKosar-43"}, "68:72:51:20:35:d8": {"lon": 9.198655, "lat": 48.860275, "online": false, "name": "FreeKWH_10_Automobil"}, "niersufer_65401_c46e1fb6156c": {"lon": 6.395841, "lat": 51.261828, "online": true, "name": "FF-VIE-Fire-and-Ice-RD"}, "525400f0c153": {"lon": 6.10233883, "lat": 50.77803498, "online": false, "name": "ffac-mescharet-offloader"}, "6872510ed42d": {"lon": 7.000925, "lat": 51.437873, "online": true, "name": "FF-E-Ruettenscheid-Caesar-07-ubnt"}, "c6:6e:1f:de:d2:9a": {"lon": 9.57896233, "lat": 47.64341742, "online": true, "name": "vorbereitung.seesystem.de"}, "5670113444ce6e2a0ad4a7a9": {"lon": 11.211622722997, "lat": 49.376686246668, "online": true, "name": "FFF-Feucht-BHK"}, "c46e1fe8f68c": {"lon": 11.58781, "lat": 48.1763, "online": true, "name": "ap01.ff.xmw.de"}, "60e32776bde8": {"lon": "11.615433177909835649", "lat": "50.951620691876748026", "online": true, "name": "Laszlo-Loebstedt-2"}, "30b5c2edf27a": {"lon": 9.898765325415297, "lat": 53.6152305514125, "online": true, "name": "ackerpoolco"}, "30b5c2d9cbb4": {"lon": 12.831981, "lat": 47.994708, "online": true, "name": "freifunk-fridolfing-gs"}, "c46e1fe8d6b6": {"lon": 10.073400735855103, "lat": 53.58028785965209, "online": true, "name": "Dani-Sahne"}, "14cc206f9ee4": {"lon": 6.103312, "lat": 50.781885, "online": true, "name": "ffac-gare-du-nord"}, "10feed50c5ba": {"lon": 8.810080289840696, "lat": 53.08833477047512, "online": true, "name": "Schlachthof-Buero"}, "60e327bdea92": {"lon": 8.107672, "lat": 51.550282, "online": true, "name": "ff-soest-KWS"}, "e894f6ab26e8": {"lon": 9.572956, "lat": 53.703019, "online": true, "name": "Seestermuehe_01"}, "574ac5e99369c32d480c113b": {"lon": 9.40130353, "lat": 49.78003438, "online": true, "name": "Stadtprozelten-03"}, "c4:e9:84:91:39:64": {"lon": 9.2239667204, "lat": 48.8222655563, "online": false, "name": "ffs-muenster00"}, "FFFF_65410_60e327c4a7ba": {"lon": 13.404954, "lat": 52.520007, "online": false, "name": "FF-BNS-Wilhelmstr.21-UP"}, "f4f26d52ba68": {"lon": 8.061607, "lat": 50.147076, "online": true, "name": "SWA-Martin-Luther50-F"}, "24:a4:3c:ac:aa:75": {"lon": 7.361505, "lat": 51.20362, "online": true, "name": "SELK-Outdoor2"}, "c4e984b5e2aa": {"lon": 7.891575, "lat": 49.485308, "online": true, "name": "wp-Obere-Turnerstrasse-01"}, "30b5c2c29ba2": {"lon": 7.907652, "lat": 49.968701, "online": true, "name": "30b5c2c29ba2"}, "30b5c28111aa": {"lon": 7.909455, "lat": 47.626036, "online": true, "name": "freifunk-wehr-gallmann-01"}, "1291": {"lon": 13.72055, "lat": 51.05582, "online": true, "name": "Knoten 1291 (datenkollektiv.net)"}, "c4e984b0de38": {"lon": 8.373622, "lat": 50.081345, "online": true, "name": "Breckenheim-1"}, "1049": {"lon": "7.0062661", "lat": "51.0668030", "online": true, "name": "Altes_Rathaus"}, "c4e984fd02b4": {"lon": 7.62678040000003, "lat": 51.9652197, "online": false, "name": "Bonni_Muenster"}, "60e327ee5302": {"lon": 7.001274, "lat": 50.964828999999995, "online": true, "name": "koeln-DiePARTEI-001"}, "60e32781ed56": {"lon": 7.42915, "lat": 51.8918, "online": false, "name": "FF-Appelhuelsen-Hollenhorst-2"}, "f4f26d402ffe": {"lon": 13.0998051, "lat": 51.3076333, "online": true, "name": "ffoz-f4f26d402ffe"}, "c46e1fdebaa2": {"lon": 11.77778, "lat": 48.45206, "online": true, "name": "FF-Zolling-OG1"}, "26": {"lon": "10.798041349101", "lat": "49.283600927599", "online": true, "name": "LangeLaenge33GW"}, "Dortmund_65403_14cc2030f7c2": {"lon": 7.45515, "lat": 51.52062, "online": true, "name": "FF-DO-Paulus-Gemeindehaus03"}, "c46e1ffe3f12": {"lon": 8.668546000000001, "lat": 49.551721, "online": true, "name": "Volksbank_Weinheim_1"}, "14cc203b5d6a": {"lon": 8.25436, "lat": 47.69226, "online": true, "name": "Freifunk-Berau-01-02"}, "c46e1fa23450": {"lon": 7.629903, "lat": 51.966402, "online": true, "name": "ffms-burse-01"}, "30b5c20ea6b0": {"lon": 7.238217999999961, "lat": 52.0919903, "online": false, "name": "freifunk-WML-Backhaus-Ebbinghoff-Schoeppingen"}, "b0487acb1fb8": {"lon": 10.6715011596, "lat": 53.868860619755, "online": true, "name": "fluse033"}, "30b5c2c68408": {"lon": 9.915388, "lat": 52.097351, "online": true, "name": "ffhi-bantanamera"}, "60e3272a637c": {"lon": 7.191616000000002, "lat": 51.93188, "online": true, "name": "freifunk_coesfeld_harle2"}, "10feede604b8": {"lon": 10.098329186439514, "lat": 53.57376651872906, "online": true, "name": "Freifunk-Luetkensallee"}, "60e32781ea72": {"lon": 9.68577, "lat": 53.75842, "online": true, "name": "koelln-reisiek-0011"}, "c4e984b5efb6": {"lon": 7.934465110301971, "lat": 49.96915408017515, "online": true, "name": "KemptenOne"}, "60e327c73124": {"lon": 8.691514999999999, "lat": 49.4093, "online": true, "name": "HD-Bergheim-003"}, "e8de2765a7dd": {"lon": 6.085626482963562, "lat": 50.77573667754997, "online": true, "name": "ffac-Living_Room"}, "niersufer_65401_687251463b7d": {"lon": 6.359818, "lat": 51.333648, "online": true, "name": "FF-GR-Niershorst-Turm"}, "e894f6cd53be": {"lon": 7.07815647, "lat": 51.39090009, "online": true, "name": "FF-E-Kupferdreh-BistroKU28-01"}, "68:72:51:0a:2c:5a": {"lon": 7.088133, "lat": 51.53712, "online": true, "name": "Derrwisch"}, "10feed2b54a8": {"lon": 8.598582744598389, "lat": 53.14526456021174, "online": true, "name": "HeadshopBremen"}, "Emscherland_65402_c46e1fe7bca0": {"lon": 7.18889, "lat": 51.73318, "online": true, "name": "FF-c3RE-Buchfuehrung-Haltern"}, "567590ae44ce6e2a0ad4ab3f": {"lon": 10.923996096789, "lat": 49.626976276927, "online": true, "name": "Asiakueche-Thai-Tam-01"}, "ffruhr_64878_6872512066b2": {"lon": 6.68172349, "lat": 51.72437969, "online": true, "name": "FF-WES-Bruenen1"}, "e894f690bc84": {"lon": 9.954246, "lat": 53.588633, "online": true, "name": "FF-Wini31"}, "60e327cf1ab0": {"lon": 11.123485565185547, "lat": 51.72665932834841, "online": false, "name": "BSU_HarzerFeriengarten_Haus1"}, "60e3279ad8ee": {"lon": 6.123440265655518, "lat": 50.769929950906715, "online": true, "name": "ffac-Zeppelin_01"}, "10feed8e9465": {"lon": 7.772011756896973, "lat": 49.64207789336514, "online": true, "name": "rok-Schoenborn-02"}, "14cc20858791": {"lon": 7.0122116, "lat": 51.44904403, "online": true, "name": "FF-E-Huyssenallee-Hairgroup-Backstage-01"}, "f81a678ca19c": {"lon": 7.321678, "lat": 52.209921, "online": true, "name": "Welcome_tW001"}, "56fbe3239369c317e0bc9a66": {"lon": 11.033452519244, "lat": 49.45621258284, "online": false, "name": "QuelleEGOst"}, "f2:9e:37:e9:da:23_1": {"lon": 8.115448, "lat": 51.490545, "online": true, "name": "FF-Yacht-Club-Westfalia-Arnsberg"}, "30b5c281152a": {"lon": 11.575775742531, "lat": 48.149715289952, "online": true, "name": "T58_001"}, "f4f26d52b9c2": {"lon": 12.084038, "lat": 50.876225, "online": false, "name": "Gera-Rathaus-01"}, "60e327e70f6a": {"lon": 6.814494, "lat": 51.852172, "online": true, "name": "Freifunk_Flugplatz_Borken"}, "30b5c2dfa874": {"lon": 7.2887581586838, "lat": 50.932873623788, "online": true, "name": "DieStadtmitte-1"}, "30b5c281541a": {"lon": 7.7883460000000015, "lat": 47.561153999999995, "online": true, "name": "freifunk-rheinfelden-wirtschaftsfoerderung-02"}, "687251320a0e": {"lon": 11.52677, "lat": 48.041333, "online": true, "name": "gruenwald-flu10"}, "60:e3:27:91:bb:14": {"lon": 10.33781, "lat": 51.07829, "online": true, "name": "EISENHUTH_NET_01"}, "60e327cee5d6": {"lon": 7.959928, "lat": 51.454843, "online": true, "name": "ff-neheim-VHS-06"}, "30b5c2812558": {"lon": 8.25844, "lat": 50.007917, "online": true, "name": "Josefsstrasse35"}, "60e327c6e070": {"lon": 8.092461, "lat": 51.576762, "online": false, "name": "ff-soest60e327c6e070"}, "60e327bd9870": {"lon": 8.14389199018478, "lat": 51.8238004995746, "online": true, "name": "ffwaf-Oelde-Kaffeehaus-vom-Kolke-2"}, "54e6fcb81d63": {"lon": 8.7638591, "lat": 50.8024165, "online": true, "name": "35037-54e6fcb81d63"}, "30:b5:c2:c6:97:60": {"lon": 9.147106, "lat": 48.53014, "online": false, "name": "ffs-DasTorZurHoelle"}, "60e3279f4d9a": {"lon": 8.057922999999999, "lat": 51.154172, "online": false, "name": "ff-Gellestadt-Elspe-01"}, "60e32793c170": {"lon": 11.156061, "lat": 51.787278, "online": true, "name": "QLB_SWQ_C1"}, "14cc205394e6": {"lon": 8.03912, "lat": 51.60281, "online": true, "name": "Freifunk_Borgeln_08"}, "e894f64fb49e": {"lon": 7.620987, "lat": 51.964921, "online": false, "name": "IchTesteHierNur"}, "c04a0038da98": {"lon": 8.257137537002562, "lat": 50.00758502039559, "online": true, "name": "SPD-Neustadtladen"}, "00:19:99:7a:6e:c3": {"lon": 9.423977, "lat": 48.940721, "online": true, "name": "ffs-bk-hohenheimer-str-40-uplink-01"}, "30b5c2bd295a": {"lon": 7.277642, "lat": 51.829459, "online": false, "name": "STD_Rathaus_1"}, "1344": {"lon": "7.2445874", "lat": "51.0196571", "online": true, "name": "krtn-Biesfeld-Zur-Post-2"}, "30b5c2ee6b12": {"lon": 6.098821, "lat": 50.784913, "online": true, "name": "FF-AC-Gut_Lehmkuelchen-01"}, "e894f6d4591c": {"lon": 8.66305, "lat": 49.988409999999995, "online": true, "name": "63225-freifunk01"}, "ffruhr_64878_c46e1fd120d2": {"lon": 8.1410858255913, "lat": 50.986048386476, "online": true, "name": "FF-Si-Hb-Vormwalderstr-01-up"}, "c46e1fd665d8": {"lon": 7.307368, "lat": 52.073724, "online": true, "name": "Freifunk_S.E.Media"}, "30b5c28859fa": {"lon": 6.235513687, "lat": 50.765032968999996, "online": true, "name": "Tennisclub-BW-Stolberg"}, "5674983144ce6e2a0ad4aa65": {"lon": 10.963566898789, "lat": 49.597101500856, "online": false, "name": "Buechenbach02"}, "60e327b2e066": {"lon": 6.9160396, "lat": 50.9555139, "online": true, "name": "Simarplatz"}, "f4f26ddc37bc": {"lon": 6.931370099999981, "lat": 51.82643909, "online": true, "name": "freifunkf-wml-textilreinigung-busskamp-gesponsert-Volksbank-Heiden"}, "14cc20315b6e": {"lon": 6.939313, "lat": 51.146133, "online": true, "name": "ME-HLD-salzmann23"}, "f4f26d3e9244": {"lon": 7.813066, "lat": 50.029981, "online": true, "name": "ffbac-niederheimbach-02"}, "6872512acd85": {"lon": 12.06525, "lat": 48.576029999999996, "online": true, "name": "pate-von-pfettrach4"}, "60e327c782be": {"lon": 11.618552, "lat": 48.192899, "online": true, "name": "Ristorante_La_Lucania"}, "60e327ee241e": {"lon": 8.4720244, "lat": 49.7771486, "online": true, "name": "64584-Sudetenstr-uplink"}, "f81a67581542": {"lon": 10.006839036941527, "lat": 53.5202766206998, "online": true, "name": "Freifunk-Veddel73H"}, "0023cd1a3f2a": {"lon": 8.692262, "lat": 49.407797, "online": true, "name": "Pirates_Heidelberg"}, "c04a00056958": {"lon": 10.05674958229065, "lat": 53.63380859567618, "online": true, "name": "TL-WR841N_V9_TEST"}, "a42bb0ad919c": {"lon": 8.142884, "lat": 51.828131, "online": true, "name": "ffwaf-Oelde-Alte-Post"}, "e8de27dd8a0a": {"lon": 5.995568633079529, "lat": 50.79572620493526, "online": true, "name": "ffac-fz05"}, "5717c2af9369c33ccb3365da": {"lon": 9.05837774, "lat": 49.99990537, "online": false, "name": "KOH-Test"}, "c46e1f316e24": {"lon": 8.123167, "lat": 51.176384000000006, "online": true, "name": "ff-moehne--GasthausMester"}, "c46e1fa121a4": {"lon": 12.849142, "lat": 48.256561, "online": true, "name": "kom-marktl.de"}, "30b5c28101ea": {"lon": 8.759965896606445, "lat": 49.472446739397284, "online": false, "name": "argh01_temp"}, "30b5c23e80ac": {"lon": 7.4436300000000015, "lat": 51.76923, "online": true, "name": "HotelzurPost3"}, "30b5c2e31cd8": {"lon": 7.746131, "lat": 51.29777, "online": true, "name": "FF-AL-MSC-DAHLE-M"}, "60e327d61254": {"lon": 8.025121, "lat": 51.833421, "online": false, "name": "ffwaf-eloh-pestalozzi-CPE210"}, "30b5c2b15af8": {"lon": 8.0078798532486, "lat": 49.656752422931, "online": true, "name": "wp-kib-ads35-001"}, "60e3279f5228": {"lon": 7.01110449, "lat": 51.9546433, "online": true, "name": "Freifunk-WML-Franz-Ganten-pwd-by-Volksbank-Gescher"}, "14cc202b8606": {"lon": 11.223354109999999, "lat": 51.71939012000001, "online": false, "name": "Alleefunk_Ecke_Barduastrasse"}, "30:b5:c2:d6:00:fe": {"lon": 7.181944, "lat": 51.2866667, "online": false, "name": "freifunk-Kautz"}, "14cc20310c3e": {"lon": 7.187106, "lat": 51.401599, "online": true, "name": "FF-Hattingen-DJK-Maerkisch"}, "60e327769c06": {"lon": 6.077408, "lat": 50.776337, "online": true, "name": "Beginenstrasse-15-EG"}, "c46e1f2cdd76": {"lon": 6.080632209777832, "lat": 50.77917740243936, "online": true, "name": "ffac-Oishii-v"}, "10feedf3f346": {"lon": 11.1553906, "lat": 51.7833449, "online": true, "name": "QLB_Hotel_Balneolum_1OG"}, "687251360b4a": {"lon": 10.64445, "lat": 53.86905, "online": true, "name": "NanoStationLocoM2Test"}, "60e327a17a5c": {"lon": 9.49217141, "lat": 53.73322584000001, "online": true, "name": "DorfkircheWest"}, "30b5c2c29a6c": {"lon": 7.6044273376464835, "lat": 49.1981917935921, "online": true, "name": "ps-Lutherkirche-Luthersaal-Nord"}, "30:b5:c2:22:5f:c2": {"lon": 12.67426, "lat": 53.51712, "online": true, "name": "17192-Teenotel-5fc2"}, "FFFF_65410_60e327577318": {"lon": 7.875781059, "lat": 50.900546268, "online": false, "name": "SiFb-Testnode-2"}, "56c4c49f44ce6e165885ab1a": {"lon": 11.021336129771, "lat": 49.585233428338, "online": true, "name": "ER-Roethelheim-2"}, "Essen_65406_14cc20c6a403": {"lon": 7.070689, "lat": 51.653939, "online": false, "name": "FF-Marl-Riegefeld"}, "30b5c222338a": {"lon": 10.135286451108, "lat": 49.733141707981, "online": false, "name": "KT_NUIP_kleinerSaal"}, "c46e1f931efa": {"lon": 6.677010000000001, "lat": 50.58051, "online": false, "name": "w0000t"}, "e8de27dd856e": {"lon": 8.832002000000001, "lat": 53.0782525, "online": true, "name": "ffhb-roonstrasse"}, "niersufer_65401_c46e1fa12bf2": {"lon": 6.708976, "lat": 51.405587, "online": true, "name": "FF-DU-MAY"}, "30:b5:c2:d9:98:74": {"lon": 8.4264010190964, "lat": 51.906095068432, "online": true, "name": "33335-Smokey"}, "30b5c2c8925c": {"lon": 9.554286, "lat": 53.752035, "online": true, "name": "PlueschauUplink"}, "14cc20c6aebf": {"lon": 7.4527205862305, "lat": 51.768791000278, "online": true, "name": "Azaleenstrasse.LH"}, "30b5c281110c": {"lon": 7.591837, "lat": 47.591631, "online": true, "name": "freifunk-chinarestaurant-rheinpark-3"}, "4ce676224f66": {"lon": 10.16088031232357, "lat": 53.59175339917769, "online": true, "name": "Liliencron"}, "c46e1fdeac6e": {"lon": 6.4484298, "lat": 51.2107092, "online": false, "name": "FF-MG-Eickerhof-03-02"}, "30b5c2811330": {"lon": 7.782403, "lat": 47.640255, "online": false, "name": "freifunk-maulburg-002"}, "16": {"lon": "10.789104814793", "lat": "49.286838725323", "online": false, "name": "HabewindNau"}, "FFFF_65410_c46e1f2dad94": {"lon": 7.933427, "lat": 50.926762, "online": false, "name": "FF-Fb-Hotel-Schuhmacher-1-up"}, "30:b5:c2:c2:a1:70": {"lon": 8.2416611909866, "lat": 51.881878897878, "online": true, "name": "ffgt-FotoParadies-Herzebrock"}, "871": {"lon": "6.9783340", "lat": "51.0309715", "online": true, "name": "Dos-y-Dos-Indoor"}, "f4f26de0ee70": {"lon": 7.394567, "lat": 53.127815, "online": true, "name": "ff-st-unterkunft-04"}, "60e32781ee24": {"lon": 7.355261, "lat": 51.929604, "online": true, "name": "FF-Nottuln-FriseurHardt"}, "c4e984c1fdf8": {"lon": 7.9968130588531, "lat": 49.615169470797, "online": true, "name": "kib-bauernmarkt-kirchenturm-02"}, "60e327bd9310": {"lon": 11.474722, "lat": 48.120556, "online": true, "name": "Hosigaustr14a"}, "FFFF_65410_60e327530ac6": {"lon": 7.87198, "lat": 50.897024, "online": false, "name": "FF-Si-Fb-Burgstr-up-2"}, "5733e28f9369c36339a4153d": {"lon": 12.01765358, "lat": 50.23337831, "online": false, "name": "Tannenberg10"}, "14cc206ffc18": {"lon": 7.272997498512268, "lat": 51.897442968866216, "online": true, "name": "Merfelds-Backstube-02"}, "Emscherland_65402_e8de275f7a94": {"lon": 7.35981, "lat": 51.66101, "online": true, "name": "FF-DAT-Hoetting-01"}, "b0:48:7a:be:f4:3e": {"lon": 9.1539605241, "lat": 48.9980870927, "online": false, "name": "ffs-bes-asyl-h1-eg1"}, "6466b3fa614a": {"lon": 8.2732629, "lat": 49.9985157, "online": true, "name": "Eiscafe-Rizzelli"}, "64:66:b3:45:98:1a": {"lon": 7.096394, "lat": 51.511704, "online": true, "name": "ABC-Apotheke-1"}, "Emscherland_65402_60e327cec0ea": {"lon": 7.2282, "lat": 51.53749, "online": false, "name": "Breddestrasse4Herne"}, "68725146634d": {"lon": 11.032494, "lat": 51.894614, "online": true, "name": "Zast_HBS_Praktiker_1"}, "570ec3d59369c30c2a25d807": {"lon": 11.97947502, "lat": 50.3252447, "online": false, "name": "IstvanKosar-107"}, "moers_65401_14cc20a91fb4": {"lon": 6.623873, "lat": 51.452035, "online": true, "name": "FF-MO-PurNatur"}, "647002ae31d0": {"lon": 8.230642999999999, "lat": 48.072340999999994, "online": true, "name": "PensionKramer1"}, "14cc205a8418": {"lon": 11.098278, "lat": 47.490874, "online": true, "name": "SAUSALITOS.GAP"}, "c6:e9:84:a3:8a:fc": {"lon": 9.1990757, "lat": 47.68539917, "online": true, "name": "kn-mainaustr-190a-3@jenserat.de"}, "30b5c2ee5b82": {"lon": 5.938002, "lat": 51.025991999999995, "online": true, "name": "Selfkant16-Alte-Schule"}, "e8de2737dc3d": {"lon": 8.6596193, "lat": 49.8636953, "online": true, "name": "64285-cheruskia-2og"}, "14cc20a68a38": {"lon": 7.907425999999999, "lat": 47.620155, "online": true, "name": "ff3l-GU-Wehr-Haus1-8"}, "60e327cf110a": {"lon": 8.484498, "lat": 49.751462, "online": true, "name": "64579-HUK-Coburg-Sohns"}, "Essen_65406_60e327f52042": {"lon": 6.99067070000001, "lat": 51.4360648, "online": true, "name": "FF-E-Baecker-Peter-Hufelandstrasse"}, "1426": {"lon": "7.4027815", "lat": "51.1217155", "online": true, "name": "wipp-Outdoor-10"}, "30b5c2879f2c": {"lon": 7.943066, "lat": 49.62601399999999, "online": true, "name": "kib-landhotel-berg-dannenfels-01"}, "60e327b7ef86": {"lon": 11.6154613, "lat": 48.30145, "online": true, "name": "60e327b7ef86"}, "14cc206edca0": {"lon": 6.234210133552551, "lat": 50.561181026818076, "online": true, "name": "ffac-MON_WalterScheiblerStr"}, "56c3c06644ce6e0f2641e507": {"lon": 10.986928817209, "lat": 49.469246682234, "online": true, "name": "waschsalon-fuerth"}, "30b5c2d5f1b3": {"lon": 8.241066, "lat": 49.982899, "online": true, "name": "Mz-Bretzenheim-DalheimerStr"}, "d85d4c9c0ef0": {"lon": 8.824355006217957, "lat": 53.071769494569615, "online": true, "name": "ffhb-steintor_07"}, "5663c21244ce6e03075128f5": {"lon": 12.223689892963, "lat": 50.096861217938, "online": true, "name": "IstvanKosar-27"}, "68:72:51:42:b3:d4": {"lon": 8.269943, "lat": 51.950041, "online": true, "name": "33428-Events-01"}, "60e327c6cad4": {"lon": 12.0916877, "lat": 50.8796424, "online": true, "name": "Gera-Lutherstr-001"}, "30b5c29f0234": {"lon": 7.788008451461791, "lat": 51.37459759247688, "online": true, "name": "FF-HE-SundwigerHoelle"}, "c0:4a:00:f1:09:48": {"lon": 9.3896569312, "lat": 48.3958851692, "online": true, "name": "ffs-feriendorf-gomadingen-15a"}, "60:e3:27:9f:58:74": {"lon": 8.3493357896805, "lat": 51.905241186281, "online": true, "name": "33334-KreisGT-Her-BT2-12"}, "30b5c2c2ba3c": {"lon": 6.251397728910001, "lat": 50.946887262, "online": true, "name": "Ederen-Kapellenstr_Uplink"}, "e8de275fe87c": {"lon": 11.616952, "lat": 48.138525, "online": true, "name": "freifunk-lanroamer"}, "30b5c2c70692": {"lon": 7.872832000000002, "lat": 50.969417, "online": true, "name": "Freifunk-Wenden-Schuhhaus_Haener"}, "c46e1ffe6482": {"lon": 8.747933506965637, "lat": 49.54731941816646, "online": true, "name": "GR-021"}, "30b5c23e9e00": {"lon": 6.445857882499695, "lat": 50.90003991791522, "online": true, "name": "ffdn-Hambach_6"}, "c4e984a3828e": {"lon": 9.985868688672781, "lat": 53.515961207928015, "online": false, "name": "atreyu"}, "6872513227c3": {"lon": 12.120275701000097, "lat": 48.55046, "online": true, "name": "wer-das-liest-ist-dooof"}, "66:00:93:34:9f:0c_0": {"lon": 7.673468, "lat": 51.299692, "online": true, "name": "FF-AL-MSC-YE"}, "14cc20cd4b82": {"lon": 12.107130999999999, "lat": 48.5572319, "online": true, "name": "Wadenspanner1"}, "5621204044ce6e4aa97ed7d5": {"lon": 10.99002689, "lat": 49.47857103, "online": true, "name": "Kabuliyan"}, "6466b3b2fc7a": {"lon": 8.032666, "lat": 51.422708, "online": true, "name": "ff-arnsberg_Stadtwerke_Stadtentwaesserung"}, "f4f26df27a52": {"lon": 6.994865835, "lat": 49.239663709, "online": true, "name": "ffsaar-Mausbaer-Freifunk"}, "60e3279ad0a4": {"lon": 6.213803, "lat": 50.682629, "online": true, "name": "ffac-Mowgli"}, "802": {"lon": "6.9998159", "lat": "51.0657806", "online": true, "name": "Felix"}, "54:e6:fc:d5:2b:20": {"lon": 9.201583, "lat": 48.712604, "online": false, "name": "Freifunk-Steckfeld"}, "c46e1f3171fa": {"lon": 8.825958967208864, "lat": 53.07370755931509, "online": true, "name": "rainbow-cables"}, "f4f26d407aa8": {"lon": 11.045432, "lat": 51.752007, "online": true, "name": "THL_Hoffmanns_Gaestehaus"}, "f8:1a:67:7f:61:b4": {"lon": 10.11863887, "lat": 54.326566, "online": true, "name": "ArmageddonDevice"}, "68725128f861": {"lon": 7.726811, "lat": 47.55391, "online": true, "name": "ff3l-herten-sankt-josefshaus-08"}, "f4f26d49fffa": {"lon": 8.773508, "lat": 50.800163, "online": true, "name": "35039-luftraum"}, "Essen_65406_e894f667b49a": {"lon": 7.001011, "lat": 51.438006, "online": true, "name": "FF-E-Ruettenscheid-Caesar-01"}, "moers_65401_c46e1f2e2340": {"lon": 6.628696, "lat": 51.448956, "online": false, "name": "FF-MO-Hanns-Albeck-Platz-4"}, "60e327b7bb70": {"lon": 7.00051, "lat": 51.48978, "online": true, "name": "Altenessen-Bueckmannshof-05"}, "e8:de:27:55:79:34": {"lon": 8.3800095319748, "lat": 51.906697409642, "online": true, "name": "ffgt_Bankery2"}, "14cc208a2e0b": {"lon": 6.995172614906551, "lat": 49.234085025971225, "online": true, "name": "ffsaar-SegafredoEspressoBar-KarstadtPassage"}, "f81a67a5dda3": {"lon": 7.9370856285095215, "lat": 51.458472669360994, "online": true, "name": "ff-abg-bergheim-ASW-17"}, "5665fcc944ce6e0307512a79": {"lon": 10.223155044469, "lat": 49.989885181903, "online": true, "name": "SecoEDV"}, "4ce676c45154": {"lon": 9.948782622814178, "lat": 53.622447798357065, "online": true, "name": "ARO"}, "a42bb0b4afb4": {"lon": 12.06852, "lat": 48.50104, "online": true, "name": "FF_CM-ECH-Eichenstr_II"}, "5677299844ce6e2a0ad4aca8": {"lon": 11.00212, "lat": 49.59985, "online": true, "name": "ER-Stadt-Lesecafe"}, "e8:de:27:f9:38:8e": {"lon": 9.190467, "lat": 48.993802, "online": true, "name": "ffs-k8pcdcdshx4k"}, "6470023d8748": {"lon": 8.810085654258726, "lat": 53.07272188596382, "online": true, "name": "GasseToshiBar"}, "60e327bdb5e4": {"lon": 11.44461, "lat": 48.14598, "online": false, "name": "60e327bdb5e4"}, "FFFF_65410_30b5c2c6ab82": {"lon": 7.7738893032074, "lat": 51.373844315946, "online": false, "name": "FF-HE-FalkElectronic"}, "56cec04e44ce6e220c98d805": {"lon": 11.031485651802, "lat": 49.463107289871, "online": true, "name": "BAU74fuenf"}, "30b5c2c2bb7a": {"lon": 8.641185, "lat": 49.645669, "online": true, "name": "HP-Oberlinhaus"}, "c4e984b0d632": {"lon": 7.12333, "lat": 50.991684, "online": true, "name": "FF_GL_Jakobstrasse_107_DO"}, "Dortmund_65403_14cc20c27cb8": {"lon": 7.319957, "lat": 51.521867, "online": false, "name": "FF-DO-Boevinghauserstr_001"}, "f4f26d3f2cb6": {"lon": 6.9944243, "lat": 51.4103203, "online": true, "name": "FF-E-Baecker-Peter-Bredeneyerstrasse"}, "14cc20cd1f70": {"lon": 7.679724, "lat": 51.289059, "online": true, "name": "FF-AL-AndreasK1"}, "14:cc:20:6e:ca:72": {"lon": 7.8154689073563, "lat": 47.996969940386, "online": false, "name": "freifunk-lieblings-159"}, "e894f678f522": {"lon": 9.960646033287048, "lat": 53.54666496200227, "online": false, "name": "planb_02"}, "f8d1112d2838": {"lon": 9.793348, "lat": 53.659975, "online": false, "name": "PI018aSchauenburger"}, "c46e1fb679ce": {"lon": 7.1153265237808, "lat": 51.083366660191, "online": true, "name": "Elektro-Busch-Laden"}, "60e32753045e": {"lon": 8.114809, "lat": 51.551753, "online": true, "name": "ff-ZUE-van-Wessem-5"}, "68725146af7b": {"lon": 9.70322, "lat": 50.52812, "online": true, "name": "fffd-edelzell-05-milchhof-huegel"}, "30b5c26f053a": {"lon": 7.73689, "lat": 51.86903000000001, "online": true, "name": "freifunk_hotel-restaurant-geschermann"}, "c0a0bbf0de64": {"lon": 8.646535, "lat": 49.857931, "online": true, "name": "64385-EuroKebap-hinten"}, "FFFF_65410_e8de2765d1fb": {"lon": 7.50144, "lat": 51.188355, "online": false, "name": "FF-Halver-Buergerzentrum"}, "Emscherland_65402_14cc206f9e64": {"lon": 7.131497, "lat": 51.665754, "online": true, "name": "FF-RE-REC-WPAV-DSL"}, "c46e1f2ca214": {"lon": 8.822418451309202, "lat": 53.040627106372455, "online": true, "name": "catntower-ost"}, "60e32759c07e": {"lon": 11.38017, "lat": 48.06705, "online": true, "name": "Gauting_Bollicine_1"}, "Emscherland_65402_60e327ee5bc8": {"lon": 7.637927, "lat": 51.645173, "online": false, "name": "FF-Bergkamen-Westenhellweg-59-2"}, "68725124fb45": {"lon": 11.59993, "lat": 48.12762, "online": true, "name": "thedoctor_ns2"}, "14:cc:20:5d:52:1e": {"lon": 7.94714391, "lat": 50.8983652, "online": true, "name": "FF-Si-Fb-Arnsbacher-01up"}, "14cc20539712": {"lon": 8.032886, "lat": 51.597662, "online": true, "name": "Freifunk_Borgeln_05"}, "57064d2a9369c317e0bc9ebc": {"lon": 10.31699359, "lat": 49.98334949, "online": true, "name": "Router07"}, "14cc206f6404": {"lon": 7.658366560935973, "lat": 47.59722995679318, "online": false, "name": "freifunk-stetten-14cc206f6404"}, "FFFF_65410_30b5c2c2d9d8": {"lon": 7.880163, "lat": 50.900219, "online": false, "name": "FF-Si-Fb-Optik-Birlenbach-BhfS53"}, "60e3274a81a7": {"lon": 8.264685, "lat": 50.001816, "online": false, "name": "60e3274a81a7"}, "c4:6e:1f:2d:ad:fa": {"lon": 8.04646074, "lat": 50.88179748, "online": true, "name": "FF-Si-Bushido-SI-u-Dorfstr165u"}, "c0:4a:00:dd:4f:04": {"lon": 7.347605, "lat": 51.210834, "online": false, "name": "jbs55"}, "10feede6dad8": {"lon": 9.973585009574888, "lat": 53.56464276779808, "online": true, "name": "ClubHeim-Freifunk"}, "1719": {"lon": "7.2281079", "lat": "51.1811104", "online": true, "name": "Neuenhaus"}, "a0f3c1055e6a": {"lon": 7.140294, "lat": 51.405121, "online": true, "name": "FF-HAT-ImEickhof-5"}, "e894f6626410": {"lon": 7.271267, "lat": 51.900947, "online": true, "name": "FFMS-Rorup-21"}, "14cc20e2016e": {"lon": 6.377622485160828, "lat": 50.91116933455353, "online": true, "name": "Juel-Malteser-HD-02"}, "14:cc:20:3b:45:ba": {"lon": 9.2726137396, "lat": 48.4245182194, "online": false, "name": "ffs-holzelfingen01"}, "FFFF_65410_e8de2759130e": {"lon": 7.787425, "lat": 51.282037, "online": false, "name": "FF-Nrd-Stadtbuecherei2-RF"}, "Dortmund_65403_02012ade4a24": {"lon": 7.446831, "lat": 51.526278, "online": true, "name": "FF-DO-Projektspeicher"}, "569512cc44ce6e30f54f28b3": {"lon": 11.025064292503, "lat": 49.466930662031, "online": true, "name": "Fuchsloch5"}, "60e3279adece": {"lon": 6.388952136039733, "lat": 50.79665526926762, "online": true, "name": "fflgw_AdK8_001"}, "30b5c2c6ce5e": {"lon": 6.44176, "lat": 51.17263, "online": true, "name": "FF-MG-LaMira"}, "e894f640dbdc": {"lon": 10.032153725624084, "lat": 53.626730088878816, "online": true, "name": "AARGH"}, "c4e984c84822": {"lon": 6.8709380000000015, "lat": 51.949485, "online": true, "name": "freifunk-WML-Turmhaus2"}, "14cc20872aee": {"lon": 8.52835, "lat": 54.57029, "online": true, "name": "FF-H-10"}, "296": {"lon": "7.2123399", "lat": "51.1380386", "online": true, "name": "Hotel Eich 02"}, "60e327c6ca10": {"lon": 12.1062807, "lat": 50.879765, "online": true, "name": "Gera-Fleischergasse-002"}, "14cc206fa3bc": {"lon": 6.084022521972656, "lat": 50.778970491204205, "online": true, "name": "ffac-Am-Knipp-Couvenstube"}, "56c3bdf844ce6e0f2641e420": {"lon": 12.981615148435, "lat": 47.84118517449, "online": true, "name": "BGL-Freilassing-PostNord"}, "62:e3:27:c7:9b:2c": {"lon": 9.09552097, "lat": 47.8295288, "online": true, "name": "Columbia"}, "30b5c2e000d8": {"lon": 7.393924, "lat": 52.123536, "online": false, "name": "Buechereck"}, "Dortmund_65403_30b5c2da19d4": {"lon": 7.445675, "lat": 51.531053, "online": false, "name": "FF-DO-Diana-03"}, "14cc205e7156": {"lon": 8.694836497306824, "lat": 49.41440515377193, "online": true, "name": "ffs3"}, "30:b5:c2:3e:9d:40": {"lon": 9.1722156387, "lat": 48.7778085821, "online": false, "name": "FFS-Event06"}, "1073": {"lon": "7.2957177", "lat": "51.1277618", "online": true, "name": "ffhw-c46e1fb2ba02"}, "c04a000bcbd8": {"lon": 8.1235742, "lat": 51.55667, "online": true, "name": "so-city-pizza"}, "14cc20cd4ea6": {"lon": 8.82637203, "lat": 54.78619545, "online": true, "name": "niebuell-kaffemaus"}, "30:b5:c2:b0:48:fc": {"lon": 9.437031, "lat": 48.947756, "online": true, "name": "ffs-bk-gartenstrasse-67-uplink-01"}, "c04a00621714": {"lon": 8.091545, "lat": 51.561141, "online": true, "name": "ff-soest-adam-1"}, "10:fe:ed:f1:59:3a": {"lon": 11.024383, "lat": 50.981434, "online": true, "name": "weber17"}, "e8de27f6f66e": {"lon": 8.243806958198547, "lat": 50.075328114024245, "online": true, "name": "WI-Freifunk-Herbertanlage"}, "30b5c2d9d0f4": {"lon": 7.11431, "lat": 50.73796, "online": true, "name": "FreifunkMurphy"}, "30b5c2ed29b6": {"lon": 10.786475999999999, "lat": 51.833537, "online": true, "name": "FEWO_Unterengengasse_Westerntor"}, "14cc205eb893": {"lon": 9.982239659875631, "lat": 53.46612832173768, "online": true, "name": "Kaufhauskanal"}, "30b5c23e81b4": {"lon": 7.38278, "lat": 51.75733, "online": true, "name": "Freifunk-Fortuna1"}, "774": {"lon": "7.3873520", "lat": "51.1132278", "online": true, "name": "Franziskus-Heim-3OG-Sued"}, "14cc20706176": {"lon": 8.48323, "lat": 51.16004, "online": false, "name": "ff-neuastenberg-bb-all-seasons"}, "647002f21870": {"lon": 8.42072, "lat": 49.45549, "online": true, "name": "ffrn-647002f21870"}, "c04a0042304c": {"lon": 8.063642, "lat": 51.39768, "online": true, "name": "ff-abg-altes-backhaus03"}, "niersufer_65401_14cc20a91f86": {"lon": 6.725977, "lat": 51.391313, "online": true, "name": "FF-DU-Capelli"}, "FFFF_65410_60e32753072a": {"lon": 8.1069016, "lat": 50.9965539, "online": false, "name": "FF-Hb-Metzgerei-Schmitt-02up"}, "30b5c2b571e4": {"lon": 7.844231, "lat": 51.030491, "online": true, "name": "freifunk-olpe-b90-gruene"}, "567280a244ce6e2a0ad4a922": {"lon": 11.003577209512, "lat": 49.599126004993, "online": true, "name": "VomFass-1"}, "c4e984f33b4a": {"lon": 7.6216921000000175, "lat": 51.7921095, "online": false, "name": "Neuhaus-08"}, "1997": {"lon": "7.3535333", "lat": "51.0115852", "online": false, "name": "Freilichtmuseum-02"}, "30b5c2c2eb40": {"lon": 10.41624516237789, "lat": 53.39635130736314, "online": true, "name": "Freifunk-Elbm_009_DLRG"}, "c46e1fb3b3ae": {"lon": 8.748856186866758, "lat": 49.547590899591206, "online": true, "name": "GR-011"}, "5694c43044ce6e30f54f2864": {"lon": 10.962944497011, "lat": 50.272113873425, "online": true, "name": "BgwRodacherstrasse"}, "f4f26d85a3ec": {"lon": 7.233988, "lat": 52.092806, "online": true, "name": "freifunkf4f26d85a3ec"}, "c4e9847dccaa": {"lon": 8.820242, "lat": 53.081672, "online": true, "name": "SchwarzerHermann"}, "56bc8e2c44ce6e4dea0d245e": {"lon": 12.08754927, "lat": 49.99835711, "online": true, "name": "DoerflasFreifunk"}, "a0f3c1994142": {"lon": 7.008902, "lat": 50.878151, "online": true, "name": "ffkbuk-a0f3c1994142"}, "c46e1fc9be78": {"lon": 8.839396834373474, "lat": 53.082196844958155, "online": true, "name": "0xdeadbeef"}, "c4e984f31c7a": {"lon": 6.88223, "lat": 51.98856, "online": true, "name": "ff-wml-pure-media-solutions-2"}, "30b5c2879db8": {"lon": 7.1179014444351, "lat": 51.033560180055, "online": true, "name": "Altes-Forsthaus"}, "c4:6e:1f:31:9f:f6": {"lon": 9.3893971145, "lat": 48.3966934689, "online": true, "name": "ffs-feriendorf-gomadingen-3_app6"}, "f4f26d94b334": {"lon": 10.442214, "lat": 53.78174499999999, "online": true, "name": "Kirche-Pastorat3"}, "10feed7b251a": {"lon": 11.59778, "lat": 48.1261, "online": true, "name": "FMP-SZ"}, "14cc202b91d3": {"lon": 8.6675933003426, "lat": 49.882967008049, "online": true, "name": "64289-oetingervilla2"}, "565b2cca44ce6e5d0b5662f8": {"lon": 10.07814101044, "lat": 49.139362579462, "online": true, "name": "JugendzentrumCrCafe"}, "14cc20317240": {"lon": 7.323524951934814, "lat": 49.367308749842394, "online": true, "name": "ffsaar-jherrli"}, "431": {"lon": "7.3413739", "lat": "51.1508064", "online": true, "name": "Rathaus Ost (Ratssaal)"}, "60e327e72194": {"lon": 12.979198694229126, "lat": 50.98608992817811, "online": true, "name": "ffmw-60e327e72194"}, "c4e984f9a65e": {"lon": 6.131480000000002, "lat": 50.715521, "online": false, "name": "ffac-Hotel-zur-Heide-5"}, "f8:d1:11:3b:cb:fe": {"lon": 10.176061, "lat": 54.324497, "online": true, "name": "ff-wellingdorf"}, "74ea3ade1a1e": {"lon": 10.169, "lat": 53.54535, "online": true, "name": "OD20160320"}, "14cc20715454": {"lon": 7.661502, "lat": 47.55329, "online": true, "name": "freifunk-levante-7"}, "c04a000bcc6c": {"lon": 7.036238909, "lat": 51.342907837, "online": true, "name": "ME-VEL-Unterstadt-02"}, "e8de2758a02a": {"lon": 11.59083, "lat": 48.11656, "online": false, "name": "txpower"}, "14cc2063b158": {"lon": 7.194019, "lat": 51.402181, "online": true, "name": "FF-Hattingen-Elektro-Schoeb"}, "c4:6e:1f:de:cc:10": {"lon": 9.3199181217, "lat": 48.8117436385, "online": false, "name": "ffs-rom1"}, "niersufer_65401_30b5c2e30152": {"lon": 6.5973437, "lat": 51.3052401, "online": true, "name": "FF-KR-Gaststaette-U76"}, "14cc20981792": {"lon": 10.934908, "lat": 51.750723, "online": true, "name": "Ferienpark_Almsfeld_H1_1"}, "60e327ee2b6e": {"lon": 8.027599, "lat": 51.837436, "online": false, "name": "ffwaf-eloh-clemens-august-01"}, "Emscherland_65402_c46e1fe73bf0": {"lon": 6.840266, "lat": 51.769431, "online": true, "name": "FF-Raesfeld-003"}, "e8de27b7880e": {"lon": 6.4294582, "lat": 51.1637306, "online": true, "name": "FF-MG-ASTA-Urftstr"}, "c46e1fd04a86": {"lon": 11.700215, "lat": 52.29595, "online": true, "name": "wuks3"}, "567d94b544ce6e731f9a4e7e": {"lon": 10.519430471649, "lat": 50.135392927478, "online": true, "name": "Hofheim9A1CHM"}, "24a43cfec7fa": {"lon": 12.4682, "lat": 48.53591, "online": true, "name": "freifunk-loi03-rf"}, "Emscherland_65402_30b5c2ee6168": {"lon": 7.2322729, "lat": 51.5357197, "online": false, "name": "Herne_Im_Schlagenkamp"}, "c4:6e:1f:a2:2e:58": {"lon": 9.1871130466, "lat": 48.8376347065, "online": false, "name": "ffs-zuff-zazenhaeuser-awo-satellit-1-og"}, "30b5c2e01ba4": {"lon": 8.351513, "lat": 50.012038000000004, "online": true, "name": "Sohnenbuppe"}, "612": {"lon": "7.1699071", "lat": "51.1851196", "online": true, "name": "Ferienwohnung Lukowski"}, "14cc20b0d1c8": {"lon": 8.337002, "lat": 51.487056, "online": true, "name": "Freifunk-Gewerbeverband-Belecke-3"}, "f81a679ff0ce": {"lon": 6.4169564, "lat": 51.186992, "online": true, "name": "FF-MG-HaltestelleKarstrasse"}, "62:e3:27:ed:ea:5e": {"lon": 9.5864886, "lat": 47.6709663, "online": true, "name": "tattooshop.freifunk-tettnang.de"}, "60e3279f5dd8": {"lon": 11.60078, "lat": 48.10405, "online": true, "name": "welcome-qaware-01"}, "60e327e764be": {"lon": 10.261, "lat": 53.4908, "online": true, "name": "Freifunk_BL36-1"}, "14cc2070a5da": {"lon": 7.662743926048279, "lat": 47.557853879962614, "online": true, "name": "freifunk-grenzach-031"}, "68725104f43b": {"lon": 6.1077, "lat": 50.76948, "online": true, "name": "Viktoriaallee-1416-Balkon"}, "Dortmund_65403_c46e1f0d227c": {"lon": 7.499154, "lat": 51.486731, "online": true, "name": "FF-DO-CafeAufbruch01"}, "14cc204d3100": {"lon": 8.84056, "lat": 54.79226, "online": true, "name": "niebuell-arche"}, "c4e984fcf2e6": {"lon": 8.645092, "lat": 49.421833, "online": true, "name": "ffrn-HD-Wieblingen-0002"}, "1e:b6:2f:d9:d8:65_2": {"lon": 8.1007325, "lat": 50.983199, "online": true, "name": "FF-Si-Hilchenbach-Grunderstr-01"}, "74ea3aeec762": {"lon": 8.67802, "lat": 49.88668, "online": true, "name": "64287-porte-des-etoiles"}, "30b5c2566bdb": {"lon": 7.554338425397872, "lat": 47.72698716700795, "online": true, "name": "freifunk-bad-bellingen-wolf"}, "60e327cf46a6": {"lon": 8.445219, "lat": 49.483234, "online": false, "name": "LU-Mitte-001"}, "30b5c222dc7c": {"lon": 7.34203, "lat": 52.15063899999999, "online": false, "name": "Steinfurt_MLH-Campus03_WettringerStr_6-10"}, "Dortmund_65403_60e32776ccf8": {"lon": 7.48215, "lat": 51.51464, "online": true, "name": "FF-DO-Bremerstrasse-41"}, "f4f26d85a524": {"lon": 6.617142, "lat": 51.839576, "online": false, "name": "FF-BOH-LIEBFRAUEN-Pfarrbuero"}, "56b3d47944ce6e1ae8abbda8": {"lon": 12.082838842559, "lat": 50.001345520457, "online": true, "name": "IstvanKosar-21"}, "68725124fd9b": {"lon": 7.9938, "lat": 51.95004, "online": true, "name": "ffwaf-Bruenebrede8"}, "60e327edae34": {"lon": 8.497952, "lat": 49.504332, "online": true, "name": "mannheim-FES-001"}, "10feed08eeb8": {"lon": 8.65449, "lat": 49.864047, "online": true, "name": "64285-ShangriLa"}, "30b5c27e6338": {"lon": 7.216822, "lat": 51.409683, "online": true, "name": "FF-HAT-Marxstr-97-Hof"}, "60e3272447e7": {"lon": 9.72516, "lat": 53.59557, "online": true, "name": "Haus-Sonnenschein-5"}, "68:72:51:4c:4f:04": {"lon": 9.6520091594, "lat": 48.6976406423, "online": true, "name": "ffs-goeppingen-camp-3"}, "c46e1f97629a": {"lon": 7.491688000000001, "lat": 52.227666, "online": true, "name": "Bronco"}, "10feedc1ca88": {"lon": 6.250196, "lat": 50.80922, "online": true, "name": "ffesc-Stich-30-UG-01"}, "f4f26d401b7c": {"lon": 8.675351, "lat": 49.452982, "online": true, "name": "Dossenheim-003-temp"}, "0418d60cc6be": {"lon": 11.570395231247, "lat": 48.17908595149, "online": true, "name": "nietzsche_28"}, "c4:6e:1f:fe:bc:68": {"lon": 9.145535, "lat": 48.771511, "online": true, "name": "0711nadelspiel.de"}, "30b5c2c2b64e": {"lon": 9.986746609210968, "lat": 53.5159516388969, "online": true, "name": "Kaffeeklappe"}, "5650963244ce6e41d5668dc0": {"lon": 10.532136, "lat": 50.121682, "online": true, "name": "OstheimScheuerWerkstadt"}, "30b5c2e31cac": {"lon": 7.29212, "lat": 51.977708, "online": true, "name": "freifunk30b5c2e31cac"}, "14cc20f071a4": {"lon": 6.915985000000001, "lat": 51.990701, "online": true, "name": "freifunk-stadtlohn"}, "60e3272a5466": {"lon": 8.608353999999999, "lat": 49.926027000000005, "online": true, "name": "64331-DArtagnan"}, "60e327e70856": {"lon": 8.535996, "lat": 49.397792, "online": false, "name": "Freifunk_Bruehl_001"}, "60e3273a235e": {"lon": 8.649271, "lat": 49.876253, "online": true, "name": "64293-bismarckstr-og3"}, "ffruhr_64878_14cc20cd1fe8": {"lon": 7.60874, "lat": 51.3661, "online": false, "name": "FF-Is-Heimatversorger-036"}, "68:72:51:06:5e:c5": {"lon": 10.12871, "lat": 54.33711, "online": true, "name": "Charles"}, "567d9f3244ce6e731f9a4e87": {"lon": 10.523001825765, "lat": 50.137177232701, "online": true, "name": "Hofheim7E92Meso"}, "f4f26ddc358a": {"lon": 8.386573, "lat": 49.935854, "online": true, "name": "Freifunk-Feldblick-Astheim"}, "30b5c280dade": {"lon": 9.97181385744625, "lat": 53.45860649659928, "online": true, "name": "Freifunky"}, "1008": {"lon": 13.73286523, "lat": 51.08830375, "online": true, "name": "Knoten 1008 (Mirko)"}, "60:e3:27:c7:a7:5a": {"lon": 12.669060230255, "lat": 53.625656481604, "online": true, "name": "17194-Tressow-a75a"}, "e8de273044d2": {"lon": 9.682382941, "lat": 50.559216976, "online": true, "name": "fffd-scharnhorststrassewg1"}, "14cc2041c638": {"lon": 7.183263, "lat": 51.401535, "online": false, "name": "FF-Hattingen-Rathaus-wa860"}, "30b5c2bd732c": {"lon": 11.135122, "lat": 51.78524, "online": true, "name": "QLB_HotelSchlossmuehle_Speicher"}, "30b5c25679d0": {"lon": 8.298121690750122, "lat": 49.900724164292576, "online": true, "name": "Freifunk-LOE-123Liquids"}, "60e327bdda64": {"lon": 8.906950950599999, "lat": 52.874117294, "online": true, "name": "Syke_Wachendorf_Alter_Berg"}, "6872512ac456": {"lon": 10.014297422021627, "lat": 53.5839296646218, "online": true, "name": "ForsmannFunk_01"}, "687251268fee": {"lon": 9.970707893153303, "lat": 53.464865622023964, "online": true, "name": "Schwarzenbergplatz-M2l-1"}, "14cc2063ac9a": {"lon": 7.00115, "lat": 49.23659, "online": true, "name": "ffsaar-schneeflocke"}, "Dortmund_65403_14cc2081b3b2": {"lon": 7.405668, "lat": 51.500033, "online": true, "name": "FF-DO-Hoehweg01"}, "10:fe:ed:a0:4b:f2": {"lon": 9.0947671831, "lat": 48.7452932337, "online": false, "name": "ffs-UD15"}, "c4e984ad6226": {"lon": 6.481059194, "lat": 50.803629444, "online": true, "name": "DN-Kinderarztpraxis-Ott"}, "30b5c2ee1fc0": {"lon": 7.4451, "lat": 51.771359999999994, "online": false, "name": "ZEDReisen-2"}, "60e327c713a4": {"lon": 7.129453719, "lat": 50.95318058899999, "online": true, "name": "FF_GL_Schlangenhoefchen1"}, "Emscherland_65402_14cc20c7ca6a": {"lon": 7.39614915, "lat": 51.62354744, "online": false, "name": "FF-WTP-Wolle_und_mehr"}, "Hamm_65404_6872510a34b6": {"lon": 7.831229, "lat": 51.677298, "online": true, "name": "FF-HAM-Caldenhofer77Ost"}, "c4e984c84cac": {"lon": 6.613546370936093, "lat": 51.835547474878595, "online": true, "name": "FF-BOH-Cecil"}, "c4:6e:1f:6f:94:8e": {"lon": 8.2926438, "lat": 51.8370394, "online": true, "name": "33378-cbd01"}, "30:b5:c2:c6:84:f6": {"lon": 7.133337, "lat": 50.0542, "online": true, "name": "56859_Bullay_Bahnhofstrasse"}, "64:70:02:4d:67:ea": {"lon": 8.0369174480438, "lat": 51.773106943408, "online": true, "name": "ffgt-Autohaus_Am_Wasserturm"}, "0418d6ad9dc9": {"lon": 7.64974594, "lat": 51.87721955, "online": true, "name": "Heidhorn-Freifunk-Etage-3.1"}, "e8de275fec70": {"lon": 11.715744, "lat": 48.165052, "online": true, "name": "FF-YavinXIII-Aschheim"}, "e894f6a21806": {"lon": 7.784961999999998, "lat": 47.565472, "online": true, "name": "freifunk-lorenz-it-003"}, "6470024c3a60": {"lon": 10.024579, "lat": 53.579863, "online": false, "name": "Zula"}, "FFFF_65410_14cc20cd2f90": {"lon": 8.41184, "lat": 50.93021, "online": false, "name": "FF-Si-La-Hotel-Lahnblick-1"}, "c4e98489efcc": {"lon": 7.9380619525909, "lat": 49.63181177668, "online": true, "name": "kib-dannenfels-KiGa-02"}, "60e327c6fa40": {"lon": 8.496433, "lat": 49.499782, "online": true, "name": "ffrn-KaefertalerStr233-outdoor1"}, "62:e3:27:e7:64:a6": {"lon": 9.19818521, "lat": 47.68292896, "online": true, "name": "KNAmSchmerzenmoesle14"}, "30b5c2b157b4": {"lon": 11.513875, "lat": 48.057999, "online": false, "name": "gemeinde-pullach_015"}, "c46e1f821920": {"lon": 7.1165817975998, "lat": 51.033463447408, "online": true, "name": "Odenthal-Haus-der-Begegnung"}, "e8de275fee6e": {"lon": 8.5411122850016, "lat": 53.03553134677, "online": false, "name": "Ganderkesee-GemeindebuechereiRomanraum"}, "90:f6:52:27:6d:2a": {"lon": 10.1189446449, "lat": 54.3270231684, "online": true, "name": "Bender"}, "f4f26ddc3e08": {"lon": 7.094078, "lat": 51.839019, "online": true, "name": "FF-WML-Baeckerei-Niewerth-MV-pwd-by-Spadaka-Reken"}, "30b5c2c6ee72": {"lon": 11.57704, "lat": 48.11356, "online": false, "name": "Gruenspitz"}, "f4f26d5293fe": {"lon": 6.618399, "lat": 51.83854, "online": true, "name": "FF-BOH-Mergimi-Obst-Gemueseladen"}, "e8de2759080d": {"lon": 6.100308895111084, "lat": 50.76930909171443, "online": true, "name": "ffac-zollernstrasse"}, "965": {"lon": "7.3212929", "lat": "51.0206032", "online": true, "name": "praxisnaudorf-1"}, "a42bb0b042fa": {"lon": 9.8299703, "lat": 50.5908833, "online": true, "name": "VillaVitalis"}, "24a43ca8901e": {"lon": 10.01212751492858, "lat": 53.547415685998125, "online": true, "name": "Marvin"}, "f4f26d85a152": {"lon": 6.614256, "lat": 51.836455, "online": true, "name": "FF-BOH-Kleinsman-Dental-Center"}, "14cc20e1e21c": {"lon": 6.3723, "lat": 50.9213, "online": true, "name": "ffac-14cc20e1e21c"}, "30b5c2c6f146": {"lon": 11.49175, "lat": 48.12013, "online": true, "name": "ragstar-muc"}, "24a43cd099f3": {"lon": 8.928247690200807, "lat": 53.05987706377005, "online": true, "name": "ffhb-EllenerFeld-01"}, "c46e1fb398d6": {"lon": 7.002910000000001, "lat": 51.9489, "online": true, "name": "z_man_02"}, "647002446a04": {"lon": 10.105215811781816, "lat": 53.580769700803636, "online": true, "name": "FFHHTonndorf"}, "60e32724581e": {"lon": 8.247910000000001, "lat": 50.0662, "online": false, "name": "KiP-DieCrackers"}, "30b5c2ee9546": {"lon": 8.644291, "lat": 49.855516, "online": true, "name": "64295-MC_J"}, "c46e1f31a488": {"lon": 9.324346, "lat": 50.434186, "online": true, "name": "fffd-phms-lichenroth"}, "60e3272a5788": {"lon": 6.8646861612796775, "lat": 51.746792307960035, "online": true, "name": "freifunk-WMLK-Gaststaette-Broemmel-Wilms-1"}, "f4f26d85a1b6": {"lon": 6.860436999999999, "lat": 51.845488, "online": true, "name": "Freifunk-WML-Borken-Wilbecke-9-II"}, "6872511876d5": {"lon": 10.097765922546387, "lat": 53.56630498322211, "online": true, "name": "zea-oktavio_01_ap_02"}, "1145": {"lon": "7.2634521", "lat": "51.0543022", "online": true, "name": "krtn-stefer"}, "e8de27f6f6e4": {"lon": 8.017053008079529, "lat": 49.65634705801309, "online": true, "name": "KIB-Der-Donnersbaecker"}, "60e327ee5856": {"lon": 7.55081, "lat": 52.129998, "online": false, "name": "freifunk-emsdettenerlandstrasse-03c"}, "1094": {"lon": 13.681513, "lat": 51.037393, "online": true, "name": "Knoten 1094 (ECL)"}, "e8:de:27:f7:07:ec": {"lon": 10.133653879166, "lat": 54.357637238508, "online": true, "name": "HinterhofGangsta"}, "60e327bdaee4": {"lon": 8.569025, "lat": 49.533666, "online": true, "name": "Viernheim-FSS-5-4"}, "14cc2030f4e2": {"lon": 7.186743, "lat": 51.400799, "online": true, "name": "FF-HAT-Paracelsus-Apotheke"}, "30b5c2383cb9": {"lon": 8.6454463005066, "lat": 49.879169242522, "online": true, "name": "64293-freddruck1"}, "30b5c280faa0": {"lon": 7.892359793186188, "lat": 49.9643419211362, "online": true, "name": "freifunk_schlossbergstrasse_1"}, "e8de27658bfc": {"lon": 7.903261099999999, "lat": 51.1273941, "online": true, "name": "freifunk-biggesee-nicoapo"}, "90f652b1bebe": {"lon": 9.77707833, "lat": 50.70675407, "online": true, "name": "Rossbach_5_Jaegerweg"}, "60e327604c0a": {"lon": 7.772757411003113, "lat": 49.502036336838636, "online": true, "name": "Ballonfabrik-Otterberg"}, "c4e98483c72a": {"lon": 7.55116, "lat": 52.17253000000001, "online": true, "name": "Freifunk_Emsdetten_Drivel"}, "c46e1f7e8378": {"lon": 7.783639, "lat": 51.281554, "online": true, "name": "freifunk-Freies_WLAN_Neuenrade_MD4"}, "60e327c705d0": {"lon": 8.464108, "lat": 49.488772, "online": true, "name": "MA-City-Cafe-am-Rathaus"}, "0050228f076f": {"lon": 8.405377, "lat": 51.284811, "online": true, "name": "ff-bestwig-landgasthof-rueppel"}, "30b5c2ffd310": {"lon": 7.4213, "lat": 49.47367, "online": true, "name": "kus-qb-hauptstr-11-02"}, "6470025c0b08": {"lon": 8.274199000000001, "lat": 49.993478, "online": false, "name": "OpenOhr16"}, "moers_65401_c46e1ffe9abc": {"lon": 6.615911, "lat": 51.484483, "online": true, "name": "FF-MO-BusinessSchoolNiederrhein"}, "f4f26d3ff8f6": {"lon": 7.3586, "lat": 49.2595, "online": true, "name": "ZW-FFKreuzberg"}, "30b5c2ac0c82": {"lon": 7.075638, "lat": 51.446759, "online": false, "name": "FF-E-Steele-OptikGrend-02"}, "56fb972a9369c317ddbc95b4": {"lon": 10.89163542, "lat": 49.89673544, "online": true, "name": "HB-Bamberg-Kettenbruecke"}, "c4e984ad63b6": {"lon": 6.073079109191894, "lat": 50.81829995146958, "online": false, "name": "ffac-Mitteluersfeld_01"}, "60:e3:27:bd:9c:5a": {"lon": 9.31697, "lat": 48.824352, "online": false, "name": "ffs-Waiblingen-Friedhof-01"}, "32:b5:c2:22:f3:62": {"lon": 9.58788872, "lat": 47.671702, "online": true, "name": "FriseurFink.SeeSystem.de"}, "6872514037e9": {"lon": 12.083743, "lat": 50.879488, "online": true, "name": "Gera-Cafe-Graf-Zeppelin-02"}, "ce:b2:55:f5:31:a4": {"lon": 9.20128, "lat": 47.68028, "online": true, "name": "nerdyscout"}, "60e32776bcec": {"lon": "11.5702181", "lat": "50.9194152", "online": true, "name": "EAH-1"}, "687251189623": {"lon": 7.662185000000001, "lat": 47.555254, "online": true, "name": "ff3l-grenzach-082"}, "f4f26d85c136": {"lon": 11.52468, "lat": 48.13391, "online": true, "name": "welcome-tuebinger-03"}, "229": {"lon": "7.0705667", "lat": "52.2379150", "online": true, "name": "mitte-ghs64"}, "68:72:51:30:24:25": {"lon": 9.19765, "lat": 48.860647, "online": true, "name": "FreeKWH_6"}, "f4f26d6d45dc": {"lon": 7.640261650085449, "lat": 51.951248246310186, "online": false, "name": "Freifunk_by_PCFT.de"}, "60e327cec33a": {"lon": 10.610402, "lat": 51.728173, "online": true, "name": "BRL_HilleBille_2"}, "14cc202c364c": {"lon": 11.143607497215273, "lat": 51.78970322263387, "online": true, "name": "QLB_FeWo_Hoellenblick"}, "30b5c20ec3ee": {"lon": 7.964297, "lat": 51.42403000000001, "online": true, "name": "ff-abg_FeWo-Balko-01"}, "f4f26d85bc5a": {"lon": 6.696272, "lat": 51.838969, "online": true, "name": "PIXTURA"}, "14cc2046b93e": {"lon": 8.311262, "lat": 49.977005, "online": true, "name": "malteser_wstr_1_2"}, "56ff97439369c317dfbc9785": {"lon": 10.03079653, "lat": 49.11182883, "online": false, "name": "Onza02"}, "ffruhr_64878_c04a00edf036": {"lon": 7.76354, "lat": 51.452574, "online": false, "name": "FF-boesperde0"}, "60e3279a97ba": {"lon": 8.253548, "lat": 51.736903, "online": true, "name": "ff_wadersloh1"}, "14cc20cd085e": {"lon": 7.08155, "lat": 51.409533, "online": true, "name": "FF-E-Ueberruhr-Kanuklub-Industrie-1"}, "57484f629369c32d470c1884": {"lon": 10.95836878, "lat": 49.47326243, "online": true, "name": "FensterOst"}, "c46e1fa26cd8": {"lon": 8.173849582672121, "lat": 51.59083373553506, "online": true, "name": "ff-haus-sauer.de"}, "moers_65401_14cc20cd4db6": {"lon": 6.626877, "lat": 51.450584, "online": true, "name": "FF-MO-PICOLO"}, "60e327e74bbe": {"lon": 8.299887, "lat": 49.897817, "online": false, "name": "loerzweiler-koe37-1-3"}, "14cc206fdce8": {"lon": 6.792287, "lat": 49.257785, "online": false, "name": "ffsaar-masp"}, "56c3c3e344ce6e0f2641e547": {"lon": 11.345175274261, "lat": 49.845438005146, "online": true, "name": "IstvanKosar-42"}, "60e32793ccb4": {"lon": 11.15552, "lat": 51.787247, "online": false, "name": "QLB_SWQ_A1"}, "14cc20713842": {"lon": 6.088152, "lat": 50.838656, "online": false, "name": "ffhrath-holzerweg-1"}, "c46e1fa22d70": {"lon": 6.081871390342712, "lat": 50.77899762715605, "online": true, "name": "ffac-hirschgraben-41"}, "a0f3c13b4ca6": {"lon": 10.114803, "lat": 53.560169, "online": false, "name": "maerchensiedlung"}, "e894f66d40b4": {"lon": 9.941276907811698, "lat": 53.54792161506844, "online": true, "name": "430_Kings_Road"}, "e8:94:f6:71:fb:b8": {"lon": 9.2241923, "lat": 48.8223487, "online": false, "name": "ffs-muenster02"}, "56c3c06744ce6e0f2641e50a": {"lon": 11.243283582887, "lat": 50.138964900371, "online": true, "name": "albrecht-1"}, "6466b3fcf348": {"lon": 6.075997326000969, "lat": 50.759502042489814, "online": false, "name": "ffac-tema-pyramid-atrium"}, "Emscherland_65402_14cc20c783ec": {"lon": 7.39394845, "lat": 51.62370899, "online": false, "name": "FF-WTP-Augenoptik_Schmitz"}, "Emscherland_65402_c46e1fe82b8e": {"lon": 7.2217833995819, "lat": 51.763344699167, "online": false, "name": "FF-c3RE-Platinum-Systemhaus-2"}, "30b5c2c2dbba": {"lon": 12.531551420688631, "lat": 54.38312899872382, "online": true, "name": "LH_Boddenfischer_Tonne8"}, "30b5c2ed4398": {"lon": 10.538909, "lat": 51.895341, "online": true, "name": "Walnuss_Huette"}, "6872512ef192": {"lon": 13.73098, "lat": 52.42759, "online": true, "name": "0bla"}, "14cc205428ec": {"lon": 8.115335, "lat": 51.569520000000004, "online": true, "name": "ff-soest-cty-schieferturm-o"}, "e894f62ab078": {"lon": 7.1013356, "lat": 50.7356787, "online": true, "name": "cryptopartykbn"}, "FFFF_65410_6872510a1c9c": {"lon": 7.63874, "lat": 51.099403, "online": false, "name": "FF-MZ-OllisKneipe-Nord"}, "60e327bdff16": {"lon": 7.702253, "lat": 51.985277, "online": false, "name": "freifunk-k3"}, "5724d3299369c31550aebcaf": {"lon": 11.91088289, "lat": 50.32130088, "online": true, "name": "IstvanKosar-113"}, "c46e1f7e8000": {"lon": 7.959831, "lat": 51.453516, "online": true, "name": "ff-abg-neheim-lib4"}, "687251121f61": {"lon": 6.9783240000000015, "lat": 51.248388, "online": true, "name": "ME-Am-Island-outdoor"}, "30:b5:c2:2a:c7:70": {"lon": 7.632642, "lat": 47.806908, "online": false, "name": "fffr-test-mulinheimo4"}, "c4e9843e4ef6": {"lon": 10.135458614514, "lat": 49.733447222463, "online": false, "name": "KT_NUIP_Cafeteria"}, "ec086b615b20": {"lon": 8.035051, "lat": 49.975679, "online": true, "name": "Versoehnungskirche2"}, "f4f26d3fde9c": {"lon": 7.18088, "lat": 51.398834, "online": true, "name": "FF-HAT-Sparkasse-Bahnhofstr-03"}, "c4e984b0d8ec": {"lon": 7.5620175, "lat": 52.021024199999985, "online": true, "name": "descilla-dorf"}, "ffruhr_64878_c46e1fe7d798": {"lon": 6.9823213, "lat": 51.6496387, "online": true, "name": "FF-Re-Dorsten-Bochumerstr55-3"}, "c04a00063030": {"lon": 8.17933738231659, "lat": 50.018124900926466, "online": true, "name": "lennebergfunk"}, "c4e984b5ee08": {"lon": 7.514117999999999, "lat": 52.235659, "online": true, "name": "Steinfurt-Elte-0006"}, "f4f26d85a1b4": {"lon": 6.898319, "lat": 51.845985, "online": true, "name": "Freifunk-WML-Borken-Landwehr-134"}, "14cc2097ec10": {"lon": 8.320217999999999, "lat": 51.569857, "online": true, "name": "ff-anroechte_metallverarbeitung-kirchhoff_1"}, "60e327951846": {"lon": 6.977434157999999, "lat": 51.332059603999994, "online": true, "name": "Heiligenhaus_Nordring_60_RR"}, "30b5c2e31c56": {"lon": 10.608063000000001, "lat": 51.721781, "online": true, "name": "BRL_Elektro_Grimm"}, "f81a67eedf73": {"lon": "11.568287400000031084", "lat": "50.932026800000002709", "online": true, "name": "jo-2"}, "niersufer_65401_c4e984b0cc34": {"lon": 6.396879, "lat": 51.261935, "online": true, "name": "FF-VIE-Fire-and-Ice-HWW-2-CPE"}, "30b5c2c2bbee": {"lon": 6.363047361373901, "lat": 50.923060323337324, "online": false, "name": "Juel-ProCompSys"}, "647002fd666e": {"lon": 9.997127763926983, "lat": 53.651862125380475, "online": false, "name": "Langenhorn_11"}, "30:b5:c2:22:77:b8": {"lon": 8.2785415649414, "lat": 51.949558715024, "online": true, "name": "33428-Waldschloesschen"}, "14cc20a92120": {"lon": 7.61638, "lat": 51.365, "online": true, "name": "FF-Is-Heimatversorger-70"}, "10feed3282b4": {"lon": 9.558126255869864, "lat": 53.73527749681057, "online": true, "name": "TrinityRiesenschecken"}, "e894f629942c": {"lon": 7.20367, "lat": 50.7761, "online": true, "name": "hermes-sa"}, "e894f669c84e": {"lon": "11.58818", "lat": "50.9317", "online": true, "name": "Wurmloch-West"}, "826": {"lon": "7.0038648", "lat": "51.0631790", "online": true, "name": "Vom-Fass"}, "moers_65401_24a43caee613": {"lon": 6.599554, "lat": 51.482052, "online": true, "name": "FF-MO-VFL-Repelen-Picostation-1"}, "1589": {"lon": "6.9879580", "lat": "51.0317535", "online": false, "name": "Mille Lire"}, "60e3275a1d24": {"lon": 8.133621, "lat": 49.641196, "online": true, "name": "kib-zauberhaftes-zellertal-lind-02"}, "e8de27bb7604": {"lon": 11.414707, "lat": 48.1432191, "online": true, "name": "FreihamFuerFreifunk3"}, "60e3272a5178": {"lon": 6.793284, "lat": 51.903757, "online": true, "name": "Freifunk-WML-Borken-Pater-Arnold-Strasse-11"}, "Dortmund_65403_30b5c26efd36": {"lon": 7.381271, "lat": 51.569846, "online": true, "name": "FF-DO-Grobe-Baeckerei-29"}, "c46e1fb39a5a": {"lon": 7.61239, "lat": 52.09334, "online": true, "name": "Steinfurt0252-Cramer-L\u00f6w"}, "14cc2062f84e": {"lon": 6.36778146, "lat": 50.63453796, "online": true, "name": "ffac-Hechelscheid-01"}, "10feed458d30": {"lon": 6.16301, "lat": 50.71461, "online": false, "name": "ffac-pp-muonIT05"}, "60e327cf1ebe": {"lon": 7.48457, "lat": 52.082829, "online": false, "name": "FF-Liberal"}, "30b5c266a230": {"lon": 11.524592, "lat": 48.039091, "online": true, "name": "gruenwald-flu1"}, "c4:6e:1f:7a:84:5e": {"lon": 13.38482, "lat": 54.09694, "online": true, "name": "freifunk-c46e1f7a845e"}, "14cc203b3e00": {"lon": 8.083139, "lat": 51.16782, "online": true, "name": "ff-Altenvalbert-2"}, "c4e984b60796": {"lon": 12.03771, "lat": 48.44413, "online": true, "name": "buch1"}, "30b5c2d9f664": {"lon": 7.155474000000001, "lat": 50.967371, "online": true, "name": "007_Blumentaxi_Bensberg"}, "647002cd81c4": {"lon": 7.339010000000001, "lat": 49.332513, "online": true, "name": "ffsaar-Rieweschnitz"}, "68725124e318": {"lon": 9.961552619934082, "lat": 53.562119371916744, "online": true, "name": "bb-flora-12-nsm2"}, "60e327605704": {"lon": 7.8251516819000235, "lat": 49.62798270805699, "online": false, "name": "rok-am-Ziegelacker-34"}, "30b5c222dc2e": {"lon": 7.34203, "lat": 52.150431, "online": true, "name": "Steinfurt_MLH-Campus02_WettringerStr_6-10"}, "30:b5:c2:c2:aa:58": {"lon": 6.808909, "lat": 51.212066, "online": false, "name": "Heerstrasse19-OG2"}, "30b5c2ffd35e": {"lon": 11.499933, "lat": 48.137733, "online": true, "name": "Freifunk-Laim-2"}, "56ad106f44ce6e0408085117": {"lon": 11.07234657, "lat": 49.71749606, "online": true, "name": "FO-RFG-BAY11-02"}, "f8d111247612": {"lon": 10.7206, "lat": 53.8728, "online": true, "name": "Freifunk-Stellbrink"}, "60:e3:27:e7:2c:b8": {"lon": 10.147011280059814, "lat": 54.31092802449845, "online": false, "name": "medusa4"}, "60e327b7f0c4": {"lon": 8.662409, "lat": 49.569476, "online": true, "name": "Druckhaus01"}, "ffruhr_64878_e894f64bf754": {"lon": 7.153868, "lat": 51.601046, "online": true, "name": "FF-RE-KS-02"}, "6872512ee31e": {"lon": 7.738289999999999, "lat": 51.87129, "online": false, "name": "Kiepenkerl-Immobilien"}, "0023cd1feaae": {"lon": 8.20758, "lat": 50.07505, "online": true, "name": "Kletterhalle-Wiesbaden.de"}, "e894f6524be0": {"lon": 6.111053824, "lat": 50.778645424000004, "online": true, "name": "ffac-Peliserkerstr"}, "10feede6fb1a": {"lon": 11.639673, "lat": 52.130691, "online": true, "name": "marktplatz"}, "1012": {"lon": 13.936624, "lat": 50.974107, "online": true, "name": "Knoten 1012 (Maximilian)"}, "niersufer_65401_30b5c2bd7676": {"lon": 6.40308973, "lat": 51.25461462, "online": false, "name": "GrueneBahnhof2"}, "30b5c2227a62": {"lon": 6.677617, "lat": 49.522123, "online": true, "name": "ffsaar-Virennet"}, "c46e1fe8e17c": {"lon": 7.70314, "lat": 47.56834, "online": true, "name": "freifunk-wyhlen-003"}, "moers_65401_68725144223e": {"lon": 6.598384, "lat": 51.481765, "online": true, "name": "FF-MO-VfL-Repelen-Picostation-2"}, "c46e1fa22df6": {"lon": 6.085358262062073, "lat": 50.77225046640602, "online": true, "name": "ffac-Kapuzinerlounge-Satellit"}, "24a43ca6c785": {"lon": 11.57482, "lat": 48.14873, "online": true, "name": "andznet_04"}, "c46e1fe7ac94": {"lon": 10.012771245092152, "lat": 53.54838142941451, "online": false, "name": "RiotUnicorn"}, "30b5c2c2bd3a": {"lon": 9.794167, "lat": 53.669415, "online": false, "name": "PI021ElmsEG2"}, "647002ba0dce": {"lon": 8.767439872, "lat": 50.807490728999994, "online": true, "name": "35037-hsmr-1"}, "c46e1fe697ee": {"lon": 7.4763840436935425, "lat": 51.91722824987706, "online": true, "name": "FFMS-Boesensell-01"}, "30b5c280dc88": {"lon": 7.011643052101135, "lat": 51.10340629388635, "online": true, "name": "EP-Clemen"}, "30b5c28111ee": {"lon": 7.736977, "lat": 47.555054, "online": true, "name": "freifunk-scheurebe"}, "5644cdd044ce6e72f4ada2ca": {"lon": 9.9592178786872, "lat": 49.738768629343, "online": true, "name": "wue.N2N-ev.refugees.aux.004"}, "f4f26d3fd590": {"lon": 6.21029, "lat": 50.685053, "online": true, "name": "JuHa-Rott-devolo"}, "30b5c2ed28bc": {"lon": 8.833505, "lat": 53.068684, "online": true, "name": "SternMa-1OG"}, "c46e1f2b6838": {"lon": 8.513003, "lat": 47.751682, "online": true, "name": "freifunk-emmerhof"}, "567b3b7944ce6e731f9a4c6d": {"lon": 13.18874896, "lat": 47.47684715, "online": false, "name": "A-Werfen-KuenburgerMundschenkinn"}, "56c3c05644ce6e0f2641e4d4": {"lon": 11.097183686598, "lat": 49.454970776477, "online": true, "name": "Querstr2a-1"}, "1392": {"lon": "7.3360372", "lat": "51.1489716", "online": true, "name": "Buecherrei01"}, "fe00ffda0023": {"lon": 8.6899, "lat": 49.981833, "online": true, "name": "63225-tek00"}, "f6:ec:38:fd:5d:b2": {"lon": 8.81294489, "lat": 47.97756393, "online": true, "name": "Basisstation I"}, "30b5c2bd7396": {"lon": 11.094228, "lat": 51.752105, "online": true, "name": "NEIN_ESN_KKH01"}, "60e327cec308": {"lon": 10.617791, "lat": 51.71594, "online": true, "name": "BRL_Villa-Brockenhexe5"}, "c04a006d0b5c": {"lon": 8.247417, "lat": 50.011817, "online": false, "name": "turm-test"}, "30b5c2c6ef14": {"lon": 11.542352, "lat": 48.135146, "online": false, "name": "dks_Freifunk"}, "moers_65401_14cc20cd4e22": {"lon": 6.631632, "lat": 51.450816, "online": true, "name": "FF-MO-Blumen-Spangenberg"}, "a4:2b:b0:a9:d9:32": {"lon": 8.761173, "lat": 52.035654, "online": true, "name": "ffs-hagos-NLNW-uplink"}, "30b5c252814c": {"lon": 8.014996, "lat": 49.664468, "online": false, "name": "wp-Donnersberg_Apo_Kibo"}, "60:e3:27:c7:81:18": {"lon": 6.450821, "lat": 49.847086, "online": true, "name": "54666-HuebschKosmetik-Irrel"}, "c46e1f87183e": {"lon": 11.581735610962, "lat": 48.12574038136, "online": true, "name": "zeppelinfunk"}, "30b5c2567d0f": {"lon": 6.207833290100098, "lat": 50.92417170721485, "online": true, "name": "ffac-Zahnaerztin-Ilona-Ullmann"}, "moers_65401_c46e1fb37ef8": {"lon": 6.630816, "lat": 51.452277, "online": true, "name": "FF-MO-SKAN11"}, "60e327cecda6": {"lon": 6.0742, "lat": 51.10791, "online": true, "name": "ffac-IvensTraining-3"}, "60e327c7514e": {"lon": 7.105911999999999, "lat": 50.740163, "online": true, "name": "BN-14"}, "niersufer_65401_30b5c23e8120": {"lon": 6.406217, "lat": 51.258563, "online": true, "name": "FF-VIE-Hubert-Vootz-Haus"}, "f81a67a5ce31": {"lon": 8.064855337142943, "lat": 51.391963701065215, "online": true, "name": "ff-ar-Laurentianum-4900"}, "647002b3a18e": {"lon": 7.168989999999999, "lat": 50.66887, "online": true, "name": "Lannesdorf1"}, "30b5c2c27b1a": {"lon": 7.18363, "lat": 51.39811, "online": true, "name": "FF-HAT-DuoOptik"}, "68725132e879": {"lon": 11.60027, "lat": 48.17774, "online": true, "name": "ech02.ff.die70.de"}, "FFFF_65410_60e32753288c": {"lon": 7.63891, "lat": 51.1076, "online": false, "name": "FF-MZ-Mollig-Na-Und"}, "60e327cecf96": {"lon": 7.307577, "lat": 52.07375, "online": true, "name": "Freifunk_Vorfuehrung"}, "c4e9846d7f8e": {"lon": 7.145927846, "lat": 51.10200613800001, "online": true, "name": "941nd-v6"}, "30b5c26fdc56": {"lon": 11.088289618492126, "lat": 51.764182351995885, "online": true, "name": "WED_LH_EDDI"}, "14cc20e2050e": {"lon": 6.054904460906982, "lat": 50.79670194803318, "online": true, "name": "ffac-Schurzelter_Muehle15"}, "6872512edece": {"lon": 7.182559, "lat": 51.399222, "online": true, "name": "FF-HAT-Faceman"}, "60e327c704b0": {"lon": 9.227673411369324, "lat": 53.11368699129695, "online": true, "name": "Seepferdchen"}, "c4:6e:1f:9e:3f:fa": {"lon": 6.869089, "lat": 51.223183, "online": false, "name": "KGV-imBruehl-3ffa-Laube"}, "e894f6d4434c": {"lon": 7.903206, "lat": 51.125992, "online": true, "name": "freifunk-biggesee-maiworm"}, "152": {"lon": "11.025626670839", "lat": "49.317745833796", "online": true, "name": "LUSC-K37"}, "14cc2070a596": {"lon": 7.660449000000002, "lat": 47.552963, "online": true, "name": "freifunk-grenzach-034"}, "ffruhr_64878_c46e1fbd52f6": {"lon": 7.221402525901, "lat": 51.47980378739, "online": true, "name": "FF-Bo-San_Marco"}, "14:cc:20:71:39:0e": {"lon": 8.3769357204437, "lat": 51.888858730946, "online": false, "name": "ffgt-Ampano2"}, "a2:f3:c1:99:2d:bb": {"lon": 10.01495004, "lat": 48.18945349, "online": true, "name": "Fruchtzwerg"}, "c4:e9:84:b0:d7:04": {"lon": 10.1296841, "lat": 54.3600323, "online": true, "name": "Glueck-CPE"}, "60e327ee597c": {"lon": 7.19300061, "lat": 52.09691299000001, "online": true, "name": "FreifunkRamsberg30"}, "c46e1fa22f74": {"lon": 6.081533432006836, "lat": 50.77655193625533, "online": true, "name": "ffac-Paella-Tapas"}, "30b5c2dfe014": {"lon": 7.21929, "lat": 51.4113, "online": true, "name": "FF-HAT-Freizeitwerk-Welper-03"}, "c4:6e:1f:d0:49:ac": {"lon": 8.3799076080322, "lat": 51.906157950584, "online": true, "name": "ffgt-CenterHotel3"}, "c46e1f31a0b8": {"lon": 12.4973851069808, "lat": 48.64349312348226, "online": true, "name": "Dingolfing_03"}, "e8:94:f6:90:7d:2e": {"lon": 8.3930974, "lat": 51.9034851, "online": true, "name": "ffgt-aurora-mesh"}, "c4e9847e8502": {"lon": 12.06751, "lat": 50.86591, "online": false, "name": "anoy-mr3420"}, "60e327c7423a": {"lon": 12.777462, "lat": 47.951798, "online": true, "name": "freifunk-wolkersdorf-omayer"}, "30:b5:c2:d9:9c:3c": {"lon": 9.786616, "lat": 47.82235, "online": true, "name": "FreifunkWassers01"}, "60e327ed8864": {"lon": 7.519535, "lat": 51.730014, "online": false, "name": "FF-Nordkirchen-Bolland-2"}, "e8:94:f6:ab:61:0e": {"lon": 8.0699837207794, "lat": 51.868770571575, "online": true, "name": "ffgt-ostenfelde-01"}, "14cc206f605c": {"lon": 12.531253695487974, "lat": 54.38358198132482, "online": true, "name": "LH_Boddenfischer_Messe"}, "60e32732c1cc": {"lon": 9.77883970364928, "lat": 53.562393384310745, "online": true, "name": "Falkensteiner-Freifunk"}, "a0f3c10569c8": {"lon": 7.353144, "lat": 51.881529, "online": true, "name": "Freifunk-Buldern-LB6"}, "30b5c2ed2e16": {"lon": 7.77959, "lat": 52.022107, "online": true, "name": "ff_westb_ILE3"}, "68725138cb4b": {"lon": 7.944338, "lat": 47.548095, "online": true, "name": "Zoll2-Hauensteinstr"}, "e894f6d45af4": {"lon": 8.654538989067078, "lat": 49.86483102241159, "online": true, "name": "64285-rostam"}, "f4f26d4a031c": {"lon": 7.657964, "lat": 47.551618, "online": true, "name": "ff3l-HDB-Saal-1"}, "e894f6d447aa": {"lon": 6.41704, "lat": 51.15082, "online": true, "name": "FF-MG-j-tec"}, "14cc20a4cc32": {"lon": 8.647614, "lat": 49.642554, "online": false, "name": "HP-S46-1"}, "60e327575162": {"lon": 6.639056, "lat": 51.834383, "online": true, "name": "Freifunk-WML-Baeckerei-Mensing-Bocholt"}, "14cc20e401e2": {"lon": 6.879422999999999, "lat": 49.585961, "online": true, "name": "Pizzeria-DaValerio_Wadrill_ffsaar"}, "f8d11126e794": {"lon": 7.001032, "lat": 51.43795, "online": true, "name": "FF-E-Ruettenscheid-Caesar-06"}, "000a5e1d7143": {"lon": 7.660735, "lat": 47.555471, "online": true, "name": "ff3l-DEGR-TBW-Offloader"}, "60e327ceec0a": {"lon": 11.836908, "lat": 48.7607, "online": true, "name": "Siegenburg01"}, "30b5c23e804e": {"lon": 7.4437, "lat": 51.76918, "online": true, "name": "HotelzurPost1"}, "30b5c2526e28": {"lon": 6.751189999999951, "lat": 49.31478, "online": true, "name": "PiratenSLS-Segafredo_Espresso_Bar"}, "60e32793c2a0": {"lon": 7.125003, "lat": 50.990725, "online": true, "name": "C_und_A_2"}, "f4f26d4a2e28": {"lon": 8.234911, "lat": 50.079128, "online": true, "name": "Teestube_2"}, "c4:e9:84:5d:ef:10": {"lon": 9.6434793, "lat": 47.6820147, "online": false, "name": "OBHE26ANT"}, "563d567244ce6e51c6e24a8b": {"lon": 10.51903367, "lat": 50.03500889, "online": true, "name": "LangerRain"}, "30b5c27e3394": {"lon": 7.17629, "lat": 51.40089, "online": false, "name": "FF-Hattingen-Buergerbuero"}, "a0f3c1896254": {"lon": 9.422663, "lat": 54.780156, "online": true, "name": "Giros-Knoten"}, "e894f6682864": {"lon": 8.276169, "lat": 49.995831, "online": true, "name": "mz-Graben6"}, "30b5c2567d27": {"lon": 6.097208261489867, "lat": 50.865638058810646, "online": true, "name": "ffac-Zahnmedizin-Dr.-Dautzenberg"}, "30b5c2c2dbb4": {"lon": 11.135645359754562, "lat": 51.787460091576506, "online": true, "name": "QLB_Bowlingcenter_am_Schloss"}, "50:54:a2:01:4e:08": {"lon": 9.5872128, "lat": 47.66908906, "online": true, "name": "vpn4.ffbsee.de"}, "a0f3c136ab38": {"lon": 6.5684043, "lat": 51.4377741, "online": true, "name": "FF-WES-NV-MVS"}, "24a43caa625b": {"lon": 9.960415363311768, "lat": 53.46399106705575, "online": true, "name": "thoerlfunk5"}, "24a43cdd0e31": {"lon": 8.790349960327147, "lat": 53.06912224080699, "online": true, "name": "Osiris0000014"}, "10feedc1c7a0": {"lon": 9.641570449, "lat": 50.543374351, "online": true, "name": "fffd-haderwald-08"}, "niersufer_65401_647002aab852": {"lon": 6.5275123715401, "lat": 51.434567746799, "online": true, "name": "FF-WES-NV-Piraten01"}, "60e32776c4ce": {"lon": 8.78778, "lat": 53.228163, "online": true, "name": "ROLF04"}, "30b5c23e9b7c": {"lon": 12.154760000000001, "lat": 48.50862, "online": true, "name": "Kumhausen1"}, "Dortmund_65403_14cc206ec934": {"lon": 7.36775, "lat": 51.523883, "online": true, "name": "FF-DO-Uhlenbrock-Partner-05"}, "60e3279f5504": {"lon": 12.009715, "lat": 48.36692, "online": true, "name": "welcome-bachham-02"}, "f4f26d85bd02": {"lon": 7.005847, "lat": 51.951994, "online": true, "name": "Freifunk-Glockenstadt-Gescher_V"}, "f4:f2:6d:3f:9c:56": {"lon": 6.557604, "lat": 49.760608000000005, "online": true, "name": "54311_TRW_04_www.iTBoxTrier.de"}, "14cc206fdcfe": {"lon": 6.988388299942017, "lat": 49.233980139099216, "online": true, "name": "ffsaar-Hansahaus"}, "3a6662313166": {"lon": 6.149017811, "lat": 51.044439549, "online": true, "name": "ffac-schneider-plus"}, "c4:6e:1f:c9:ca:bc": {"lon": 9.178519, "lat": 48.831698, "online": false, "name": "ffs-zuff-spital-01"}, "30b5c2bd71fa": {"lon": 7.908694446086883, "lat": 49.96729911298063, "online": true, "name": "ffbin-pfarrer-heberer-str-1"}, "60e327c74690": {"lon": 11.1212, "lat": 51.72794, "online": true, "name": "BSU_Friedrichsdorfstrasse_13"}, "e8de27302104": {"lon": 7.088435, "lat": 50.738889, "online": true, "name": "Bad"}, "14cc20a68430": {"lon": 7.286596, "lat": 50.932833, "online": true, "name": "Coco-Lores"}, "e8de27556c38": {"lon": 11.22598, "lat": 51.72086999999999, "online": true, "name": "Ball_Bebelstr_3000"}, "niersufer_65401_60e327edcf96": {"lon": 6.537259, "lat": 51.265726, "online": true, "name": "FF-Willich-EvangelischeKirche-Alt-Willich02"}, "14cc203b54b8": {"lon": 8.403978, "lat": 51.362592, "online": true, "name": "ff-bestwig-sanremo01"}, "14cc20e38dbc": {"lon": 13.017932, "lat": 51.074426, "online": true, "name": "ffwdh-14cc20e38dbc"}, "14cc20e143b8": {"lon": 7.320310000000001, "lat": 52.20964, "online": true, "name": "Steinfurt0101-Ludgeri-Apotheke"}, "14cc2098166a": {"lon": 7.103589, "lat": 52.030749, "online": true, "name": "Alt-Legden"}, "30b5c2d9f098": {"lon": 9.9525771, "lat": 52.1573038, "online": true, "name": "angoulemeplatz"}, "30b5c2863bc2": {"lon": 7.085827589, "lat": 50.742365595, "online": true, "name": "yarkinus_001"}, "c4e984c84f86": {"lon": 7.0108999999999915, "lat": 51.95547999999999, "online": true, "name": "Freifunk-WML-Haarstudio-Schlueter-pwd-by-Volksbank-Gescher"}, "30b5c28757e4": {"lon": 8.622969, "lat": 49.691627, "online": true, "name": "Bensheim-Mikroloft02"}, "e8de27588bec": {"lon": 7.019649, "lat": 51.441492, "online": true, "name": "Ruettenscheid-Viertelliebe"}, "56c3c04c44ce6e0f2641e4b3": {"lon": 10.828742808047, "lat": 49.910203355343, "online": true, "name": "Teefax"}, "14cc203b426c": {"lon": 9.009379, "lat": 53.057029, "online": true, "name": "AlterSportplatz-Oyten"}, "30b5c2c2a682": {"lon": 10.5966, "lat": 48.0057, "online": false, "name": "bad_woerishofen11"}, "6872511273e0": {"lon": 9.941265016805119, "lat": 53.57844677413313, "online": true, "name": "MuttisRache"}, "e894f6521c48": {"lon": 7.07572, "lat": 51.4463, "online": true, "name": "FF-E-Steele-FreakSHOW"}, "60e32776e116": {"lon": 10.002953409930342, "lat": 53.49433797824639, "online": true, "name": "NWH-02"}, "e8de27bb7766": {"lon": 8.130925999999999, "lat": 51.498298999999996, "online": true, "name": "ff-Koerbecke-Jugendtreff-2"}, "ae:c1:64:7c:35:55_2": {"lon": 6.753284, "lat": 51.59926, "online": true, "name": "FF-Huenxe-006"}, "56fc5ab79369c317dfbc96cc": {"lon": 11.007187520339, "lat": 49.593797632694, "online": false, "name": "PrettyFlyForAWifi"}, "567d716b44ce6e731f9a4e59": {"lon": 10.26985622256, "lat": 50.461241448983, "online": true, "name": "Stockheim7f32Elk"}, "c0:a0:bb:f0:e1:c8": {"lon": 9.4698335231, "lat": 48.2326008893, "online": true, "name": "ffs-zwiefalten-kaba2"}, "e8:94:f6:4b:12:be": {"lon": 8.3747309446335, "lat": 51.904105961232, "online": true, "name": "ffgt-ZigZag_01"}, "44d9e7b3210f": {"lon": 10.765853226185, "lat": 53.898752712144, "online": true, "name": "Freifunk-SVT-Luebeck-1"}, "30b5c2b04fb4": {"lon": 7.213902, "lat": 52.150115, "online": true, "name": "Gemeinde_Metelen_Sporthalle"}, "c4e984ef21ca": {"lon": 7.1245949999999985, "lat": 50.99081, "online": true, "name": "Nails_American_Style"}, "c46e1fe6984e": {"lon": 7.6731991767883, "lat": 51.30024186579, "online": true, "name": "FF-AL-Kinder"}, "1904": {"lon": "7.4007378", "lat": "50.9899139", "online": true, "name": "Gemeinschaftsgrundschule-Freifunk"}, "c04a002cec02": {"lon": 9.704075, "lat": 50.526445, "online": true, "name": "fffd-edelzell-01-pizzeria-bella-napoli"}, "c04a0050ff65": {"lon": 10.10642945766449, "lat": 53.623553939340795, "online": true, "name": "Pfirsichnetz-UP"}, "68:72:51:2e:35:df": {"lon": 9.17771, "lat": 48.77879, "online": false, "name": "ffs-Schlossplatz-01"}, "c46e1fb8fc6a": {"lon": 7.606497999999998, "lat": 47.618329, "online": true, "name": "ff3l-GU-Haltingen-Offloader"}, "30b5c2ed5034": {"lon": 7.786102, "lat": 51.984797, "online": true, "name": "ff_telgte_tante_lina"}, "422": {"lon": "7.2129054", "lat": "51.1387215", "online": true, "name": "Eiscaf\u00e9 Venezia 2"}, "30b5c2811be6": {"lon": 6.9746124744415, "lat": 51.414187978919, "online": true, "name": "FF-E-dc6jgk-2"}, "30b5c2228cd0": {"lon": 7.82085, "lat": 49.6296, "online": false, "name": "rok-eiscafe-messina-01"}, "f8d111885674": {"lon": 10.65256, "lat": 48.10492, "online": true, "name": "Ettringen_Buecherei_Buero"}, "e894f6c3fc4a": {"lon": 7.89246, "lat": 51.038456, "online": true, "name": "freifunk-biggesee-Stachelau-Jugendheim2"}, "c4e984fd0294": {"lon": 11.043047999999999, "lat": 51.902105999999996, "online": true, "name": "HBS_Kuechengarten"}, "c46e1f316c18": {"lon": 8.417819, "lat": 51.362734, "online": true, "name": "ff-bestwig-ostwig05"}, "14cc206fa438": {"lon": 6.063401699066162, "lat": 50.77503708150234, "online": true, "name": "ffac-muffeter_weg_31"}, "30b5c2e30058": {"lon": 11.6029, "lat": 48.11939, "online": true, "name": "www.boerse-go.ag.1"}, "30b5c23915aa": {"lon": 8.002839999999999, "lat": 51.0942, "online": true, "name": "LE-Kirchveischede-Hengstenberg_20-Testsystem"}, "68:72:51:20:63:2d": {"lon": 8.9868679047, "lat": 48.955523566, "online": true, "name": "ffs-vai05"}, "30b5c2865e06": {"lon": 6.931758899, "lat": 51.82386269999999, "online": true, "name": "Freifunk-WML-ElektroWehling1-gesponsert-Volksbank-Heiden"}, "c46e1f2c6e18": {"lon": 7.110224962234496, "lat": 51.11661867038274, "online": true, "name": "Radio-TV-Ludwig"}, "68725136f108": {"lon": 12.131434500000019, "lat": 48.5470908, "online": false, "name": "Wer-das-liest-ist-doof"}, "60e32732c42e": {"lon": 6.916159999999992, "lat": 52.07322, "online": true, "name": "freifunk-WML-Pfarrheim-St.Maria-H"}, "c46e1fb65578": {"lon": 7.786328, "lat": 51.981901, "online": true, "name": "ff_telgte_Steenpoate_I"}, "265": {"lon": "7.0302730", "lat": "52.2111397", "online": true, "name": ""}, "30b5c2ee60d0": {"lon": 7.39899, "lat": 51.7586, "online": true, "name": "freifunk-st.josefshaus"}, "c46e1fa25f26": {"lon": 8.035, "lat": 51.60036, "online": true, "name": "Freifunk_Borgeln_09"}, "56c4b56a44ce6e165885ab09": {"lon": 9.155060005468, "lat": 49.803955861722, "online": false, "name": "Bistro-Al-Centro"}, "e8de2760fc78": {"lon": 8.822241425514221, "lat": 53.04059162752202, "online": true, "name": "catntower_sued"}, "5254003a0078": {"lon": 7.619624733924866, "lat": 49.189830828629184, "online": true, "name": "ps-schaenzel-9-offloader"}, "c46e1f631790": {"lon": 7.443693280220032, "lat": 49.47243976765268, "online": true, "name": "wp-glm1"}, "e894f6429ef0": {"lon": 6.438007, "lat": 51.204608, "online": true, "name": "FF-MG-TV1848-2"}, "30b5c2cb3c04": {"lon": 8.443056, "lat": 49.855682, "online": true, "name": "64560-skynet"}, "60e327768e84": {"lon": 12.63655, "lat": 48.00033, "online": true, "name": "Palling_Harterstr_1OG"}, "565f7f0044ce6e5d0b5666da": {"lon": 11.05575442, "lat": 49.6033124, "online": true, "name": "MILLENNIUMtop"}, "FFFF_65410_c46e1ff651c8": {"lon": 7.67333, "lat": 51.293641, "online": false, "name": "FF-AL-DS-PizzaOase"}, "30b5c2d9b978": {"lon": 6.094283, "lat": 50.775793, "online": true, "name": "ffac-esik-domapartments-1"}, "14cc20cd4f28": {"lon": 7.478487, "lat": 52.083541, "online": true, "name": "Freifunk_am_Jobcenter"}, "30b5c2b3662e": {"lon": 7.270757, "lat": 49.38994, "online": true, "name": "ffsaar-LOUISXIV"}, "60e327c756e6": {"lon": 12.12354, "lat": 48.53962, "online": false, "name": "palme2"}, "c4:6e:1f:2d:b7:ea": {"lon": 10.12649238, "lat": 54.33291125, "online": true, "name": "Robert"}, "c46e1fe84f3e": {"lon": 7.774157524108887, "lat": 49.4499995538738, "online": true, "name": "wp-buchfinchfunch"}, "c46e1fb91550": {"lon": 10.3810046, "lat": 53.7972569, "online": true, "name": "OD-Sophie-Scholl-Strasse"}, "niersufer_65401_64700298849a": {"lon": 6.55837, "lat": 51.33023, "online": true, "name": "FF-KR-Karlsplatz-30"}, "68:72:51:20:63:0e": {"lon": 6.811792, "lat": 51.219606, "online": false, "name": "Clube_Portugues"}, "14cc20b2d912": {"lon": 11.57497, "lat": 48.14894, "online": true, "name": "14cc20b2d912"}, "c46e1fa2374a": {"lon": 8.8648216, "lat": 53.10504920000001, "online": true, "name": "Vorstrasse"}, "44:d9:e7:09:b4:72": {"lon": 10.200548171997, "lat": 54.279650074689, "online": true, "name": "Marie-Christian-Heime-02"}, "30b5c2b581ec": {"lon": 11.373962, "lat": 48.073198, "online": true, "name": "Gauting_Philipp_1"}, "30b5c27dfb8e": {"lon": 6.921927, "lat": 50.9042, "online": true, "name": "freifunk-klettenberg"}, "60e327c766b2": {"lon": 6.961556, "lat": 50.987639, "online": true, "name": "MauNieWei.de_KoeB_St_Katharina"}, "565caf8044ce6e5d0b56644c": {"lon": 10.567991, "lat": 50.093592, "online": true, "name": "UnfindenKirche1"}, "e894f6d4230c": {"lon": 8.141928, "lat": 51.827029, "online": true, "name": "ffwaf-oelde-buergerhaus"}, "30b5c2cb4f94": {"lon": 8.2445633411407, "lat": 49.986783222724, "online": true, "name": "mz-Draiser-Strasse-2"}, "60e327e7414c": {"lon": 11.38397, "lat": 48.13301, "online": true, "name": "ffm-Germering-MK01"}, "FFFF_65410_68725108fc98": {"lon": 7.65638, "lat": 51.09994, "online": false, "name": "FF-MZ-kostka-dach"}, "60:e3:27:c7:3c:98": {"lon": 9.1534723621, "lat": 48.8511849117, "online": true, "name": "ffs-stammheim-tw1"}, "c4:6e:1f:63:0e:9a": {"lon": 8.385836, "lat": 51.904895, "online": true, "name": "ffgt-at_turret_1"}, "14:cc:20:cd:1f:fe": {"lon": 7.60898, "lat": 51.36603, "online": true, "name": "FF-Is-Heimatversorger-044"}, "1052": {"lon": 13.485694, "lat": 51.162401, "online": false, "name": "Knoten 1052 (Mathias)"}, "572f96269369c36338a413d9": {"lon": 11.91596836, "lat": 50.31348762, "online": true, "name": "IstvanKosar-05"}, "c46e1fb29096": {"lon": 7.906617, "lat": 51.126053000000006, "online": true, "name": "freifunk-biggesee-papierhaus-frey-01"}, "f81a67eedce3": {"lon": "11.600889999999936", "lat": "50.93089", "online": true, "name": "schenk-1"}, "30b5c2c68088": {"lon": 8.282134, "lat": 51.348559, "online": true, "name": "ff-Meschede-Dominante-Ruhrplatz-TherapieStrehl"}, "f4f26d22a092": {"lon": 7.984636, "lat": 49.861176, "online": true, "name": "Vierter"}, "niersufer_65401_c4e984b0dd2e": {"lon": 6.39932, "lat": 51.26158, "online": true, "name": "FF-VIE-Buehler-Mediaservice-CPE210"}, "30b5c29f36a0": {"lon": 6.19751, "lat": 50.91956, "online": false, "name": "ffac-52499-Bellandris-Gartencenter-Hoeppener"}, "00199967faf2": {"lon": 8.664694, "lat": 49.46552, "online": true, "name": "schriesheim-CBS-offloader"}, "56c3c03a44ce6e0f2641e47e": {"lon": 12.344600243595, "lat": 47.854879642842, "online": true, "name": "RO-Prien-Bernauerstr-4-6--01"}, "6872512e629e": {"lon": 11.523946, "lat": 48.041737, "online": true, "name": "gruenwald-tram2"}, "e8de27ca9ca4": {"lon": 7.649856, "lat": 51.933179, "online": true, "name": "WF-FF-01"}, "e8:94:f6:4b:84:8e": {"lon": 8.3804869651794, "lat": 51.914020835369, "online": true, "name": "ffgt-wse894f64b848e"}, "c46e1ffe601a": {"lon": 7.1459627151489, "lat": 51.101984803794, "online": true, "name": "1043nd-V2"}, "FFFF_65410_c46e1ffe48ce": {"lon": 7.6398844, "lat": 51.037894, "online": false, "name": "FF-BNS-SchoeneAussicht-01-up"}, "c04a008d7474": {"lon": 11.031364, "lat": 51.894854, "online": true, "name": "Zast_HBS_Praktiker_4"}, "c46e1fe6df52": {"lon": 7.67315089, "lat": 51.2931005, "online": true, "name": "FF-AL-DS-FeWoRoth"}, "c46e1fa2b846": {"lon": 8.105742931365969, "lat": 51.57359671849569, "online": true, "name": "ff-soest-cty-lange"}, "74:ea:3a:e4:d5:96": {"lon": 9.25437, "lat": 48.72847, "online": false, "name": "ffs-Ostfildern-Kirchheimerstr-60-1"}, "e894f629fb40": {"lon": 8.455905, "lat": 49.476696, "online": true, "name": "LU-Sued-001"}, "5687282544ce6e0814c75625": {"lon": 10.071795296812, "lat": 49.134616620484, "online": false, "name": "findlingCrailsheim"}, "60e32776ff52": {"lon": 10.916624, "lat": 51.871182, "online": true, "name": "FFHarz-SchlossvillaDerenburg3"}, "30:b5:c2:c8:7d:0e": {"lon": 9.054569006, "lat": 48.5137117934, "online": false, "name": "ffs_s6_01"}, "c4e98489ff4e": {"lon": 8.650494, "lat": 49.71258600000001, "online": true, "name": "ffrn-c4e98489ff4e"}, "e8:de:27:ad:63:94": {"lon": 9.17298, "lat": 48.69012, "online": false, "name": "ffs-xmas07"}, "Emscherland_65402_30b5c2ed8fb4": {"lon": 7.395802, "lat": 51.624346, "online": true, "name": "FF-WTP-Gelateria_Italiana"}, "14:cc:20:87:59:3c": {"lon": 13.428999781609, "lat": 54.092999501983, "online": true, "name": "amundsen-12.4"}, "f4f26ddc3b82": {"lon": 7.090833, "lat": 51.809696, "online": true, "name": "FF-WML-Vereinsheim-Huelsten-pwd-by-Spadaka-Reken"}, "60e327ee5f2e": {"lon": 7.302572, "lat": 51.932336, "online": true, "name": "darup.quellenweg_1"}, "e894f60caa56": {"lon": 7.0134716, "lat": 51.4045958, "online": true, "name": "FF-E-Baldeney-RRMark-01"}, "a0f3c1c04148": {"lon": 10.060977, "lat": 53.584366, "online": false, "name": "ffhh-elsa"}, "f4f26ddc3c54": {"lon": 8.042943, "lat": 51.753694, "online": false, "name": "freifunk-beckum-HilfeInNotlagen"}, "30b5c2879af6": {"lon": 6.891338, "lat": 49.540082, "online": false, "name": "HairDesign-MartinRegert_Wadern_ffsaar"}, "52:9c:b0:c5:4b:af_0": {"lon": 6.76793, "lat": 51.64235, "online": true, "name": "FF-Huenxe-002"}, "e8de27dd60c6": {"lon": 6.483469, "lat": 50.802577, "online": true, "name": "DN-Markt-2-Buergerbuero-Warteraum"}, "14cc20b972ae": {"lon": 10.790226, "lat": 51.836201, "online": false, "name": "tuxmania_at_wr_1"}, "c04a0050fc8f": {"lon": 9.950447380433616, "lat": 53.558102125240275, "online": true, "name": "lilsoundboy"}, "6466b3fa272a": {"lon": 8.22832, "lat": 50.083226, "online": true, "name": "RAW"}, "564ed71644ce6e3ec3f791aa": {"lon": 10.77690661, "lat": 50.0938937, "online": true, "name": "Ebern-Asylerstaufnahme-AP02"}, "571e789a9369c303bb3f3816": {"lon": 11.00728691, "lat": 49.59513139, "online": true, "name": "ER-Stadt-VHS1"}, "8": {"lon": "10.817749494712", "lat": "49.296237166397", "online": true, "name": "Haag4Telekom"}, "5637c8ff44ce6e071cafd6f7": {"lon": 11.05585298729, "lat": 49.446214623155, "online": true, "name": "Born2fart"}, "f4f26d8ed30c": {"lon": 7.104222, "lat": 50.741958, "online": true, "name": "Oskebo-Balkon"}, "f81a6771db6e": {"lon": 10.690544843674, "lat": 53.871375591242, "online": true, "name": "hgh04"}, "60e327bdb7e2": {"lon": 7.219689, "lat": 50.639775, "online": true, "name": "FF-3344-60e327bdb7e2"}, "niersufer_65401_14cc20630aec": {"lon": 6.576747, "lat": 51.442751994, "online": true, "name": "FF-WES-NV-Piraten1"}, "e894f6521e08": {"lon": 8.052831, "lat": 51.123621, "online": true, "name": "LE-MAUMKE-Erzweg"}, "FFFF_65410_c46e1fe6df60": {"lon": 7.64691, "lat": 51.10965, "online": false, "name": "FF-MZ-501"}, "00:23:cd:df:f2:a0": {"lon": 6.601892, "lat": 49.803851, "online": true, "name": "54309_Bes_DigiLay14"}, "da956837d832": {"lon": 8.168841, "lat": 51.376658, "online": true, "name": "ff-meschede-katersiepen14-offloader"}, "14cc205e715c": {"lon": 7.1888809, "lat": 51.9549741, "online": false, "name": "ffcoe003-akb"}, "30b5c2705b1c": {"lon": 7.996743321418762, "lat": 49.612822097320525, "online": true, "name": "wp-kib-stabue2"}, "687251269d73": {"lon": 11.520388, "lat": 48.054488, "online": true, "name": "gemeinde-pullach-UB_001"}, "c46e1ffe6246": {"lon": 8.7737134, "lat": 50.8059519, "online": true, "name": "35037-adw25"}, "14cc2062efae": {"lon": 7.9814010858536, "lat": 51.968394543863, "online": false, "name": "ffwaf-fonfara1"}, "573163fe9369c36339a414ad": {"lon": 10.505239, "lat": 50.031359, "online": true, "name": "UbntHassfurtHauptstrasse"}, "c4e984b5d96e": {"lon": 7.014955, "lat": 52.08193899999999, "online": true, "name": "welacom.freifunk-wml.de"}, "ec086b615f08": {"lon": 8.569772, "lat": 50.00025699999999, "online": true, "name": "64546-WallCityII"}, "c0:4a:00:34:4c:94": {"lon": 10.12885, "lat": 54.36008, "online": false, "name": "nifgel23"}, "60e32759fdf6": {"lon": 11.149093508829537, "lat": 51.79511448302739, "online": true, "name": "BBS_Heinrich_Mette"}, "56bf939344ce6e4dea0d26f9": {"lon": 9.8781534875877, "lat": 49.779328147528, "online": true, "name": "HoeMTK02noup"}, "44d9e74d93b9": {"lon": 7.998218, "lat": 50.823211, "online": true, "name": "SiSi-EiserfelderWeiher-02-up"}, "10:fe:ed:78:42:b8": {"lon": 9.3127150834, "lat": 48.7528910969, "online": true, "name": "ffs-juno"}, "30b5c252685e": {"lon": 10.60426, "lat": 48.01926, "online": true, "name": "bad_woerishofen28"}, "14cc20473a82": {"lon": 8.226616680622099, "lat": 50.08031184672672, "online": true, "name": "Watersound"}, "30b5c2b86bb5": {"lon": 10.140733122607344, "lat": 53.608674712340175, "online": true, "name": "Matthias-Claudius-Kirche-01"}, "30:b5:c2:22:65:8c": {"lon": 12.625377774239, "lat": 53.634719354501, "online": true, "name": "17194-Alter-Pfarrhof-1"}, "30b5c2b05174": {"lon": 7.0581082999706, "lat": 50.71467574348, "online": false, "name": "HinterAue_A_plus"}, "c46e1fa281ac": {"lon": 8.10740053653717, "lat": 51.56868764504553, "online": true, "name": "ff-soest-cty-zwiebel-1"}, "e8de27554fd2": {"lon": 7.090110000000001, "lat": 50.73978, "online": true, "name": "Baeckerei_Klein"}, "14cc2097f84a": {"lon": 7.44495, "lat": 51.77121, "online": true, "name": "Dat_Huesken"}, "14cc20e40f4a": {"lon": 13.0059618, "lat": 51.0839171, "online": false, "name": "ffwdh-14cc20e40f4a"}, "60:e3:27:82:0a:fe": {"lon": 7.1629199, "lat": 51.2552072, "online": false, "name": "wup-60e327820afe"}, "568fc5bd44ce6e30f54f2428": {"lon": 10.962043260408, "lat": 49.74429659945, "online": true, "name": "OpenWrt"}, "a0:f3:c1:cf:b2:f8": {"lon": 10.08006, "lat": 47.89742, "online": false, "name": "aichstetten-hardsteigerstr13"}, "34": {"lon": "10.788957963850", "lat": "49.285079014212", "online": true, "name": "freifunk-staude-h45-kl"}, "00:19:99:a7:4c:56": {"lon": 9.3280708, "lat": 48.8600711, "online": true, "name": "ffs-neustadt-bf32-uplink-02"}, "FFFF_65410_14cc20e15642": {"lon": 7.515582, "lat": 51.088283, "online": false, "name": "FF-MH-Bioland-Schaeferhof"}, "30b5c266a2a2": {"lon": 8.804442286491394, "lat": 53.07949115417171, "online": false, "name": "ffhb-DiePARTEI-018"}, "c4e984c7accd": {"lon": 7.695852, "lat": 51.423688, "online": true, "name": "FF-IS-Wulfringsen-01"}, "e8de275905d9": {"lon": 12.15919, "lat": 48.5368, "online": true, "name": "Rieblwirt-1"}, "e894f62a03cc": {"lon": 7.638695240020753, "lat": 51.94454926086589, "online": true, "name": "haus-g-og1"}, "c4e9849984d0": {"lon": 8.821629881858826, "lat": 53.07505523642946, "online": true, "name": "albrechtstrasse1"},